City_ID,City,Lat,Lng,Max Temp,Humidity,Cloudiness,Wind Speed,Country,Date
0,caravelas,-17.7125,-39.2481,75.27200000000005,91,14,1.92,BR,1674961372
1,sitka,57.0531,-135.33,35.492,64,20,2.06,US,1674961372
2,lebu,-37.6167,-73.65,60.47600000000009,91,0,8.05,CL,1674961373
3,ponta do sol,32.6667,-17.1,57.00200000000008,79,42,3.07,PT,1674961373
4,tete,-16.1564,33.5867,75.29000000000002,100,20,0.0,MZ,1674961374
5,manokwari,-0.8667,134.0833,78.72800000000007,85,100,0.62,ID,1674961374
6,ribeira grande,38.5167,-28.7,55.77800000000006,87,53,4.92,PT,1674961375
7,kruisfontein,-34.0033,24.7314,56.01200000000006,82,36,2.31,ZA,1674961376
8,port alfred,-33.5906,26.891,66.18200000000002,75,95,3.13,ZA,1674961376
9,faya,18.3851,42.4509,45.122000000000035,83,2,0.96,SA,1674961377
10,isiolo,0.3546,37.5822,64.09400000000008,54,3,1.58,KE,1674961377
11,monforte de lemos,42.5216,-7.5142,34.57400000000001,96,10,0.99,ES,1674961378
12,tilichiki,60.4667,166.1,28.04000000000002,83,100,8.28,RU,1674961379
13,ostrovnoy,68.0531,39.5131,26.18600000000007,89,51,9.48,RU,1674961379
14,kodiak,57.79,-152.4072,35.11400000000003,100,100,2.06,US,1674961380
15,mogadishu,2.0371,45.3438,73.61600000000001,83,15,8.3,SO,1674961082
16,dhidhdhoo,6.8833,73.1,80.13200000000002,74,11,4.66,MV,1674961381
17,namatanai,-3.6667,152.4333,85.29800000000003,67,63,2.09,PG,1674961383
18,rikitea,-23.1203,-134.9692,79.55600000000004,67,23,5.33,PF,1674961385
19,arraial do cabo,-22.9661,-42.0278,76.71200000000006,91,100,8.19,BR,1674961386
20,atuona,-9.8,-139.0333,78.99800000000002,77,35,8.42,PF,1674961387
21,hermanus,-34.4187,19.2345,57.794000000000075,65,97,8.14,ZA,1674961389
22,avarua,-21.2078,-159.775,84.25400000000005,74,20,4.12,CK,1674961391
23,yeppoon,-23.1333,150.7333,89.38399999999999,63,27,4.64,AU,1674961392
24,pacific grove,36.6177,-121.9166,51.908,79,100,3.6,US,1674961393
25,paragominas,-2.9667,-47.4833,71.11400000000003,96,100,1.26,BR,1674961394
26,cape town,-33.9258,18.4232,67.37000000000006,56,0,7.72,ZA,1674961192
27,chapais,49.7834,-74.8492,-20.181999999999967,100,91,1.08,CA,1674961396
28,chuy,-33.6971,-53.4616,70.03399999999999,89,0,1.92,UY,1674961398
29,kapaa,22.0752,-159.319,75.52400000000002,66,20,9.26,US,1674961399
30,mar del plata,-38.0023,-57.5575,71.09600000000006,88,0,5.81,AR,1674961394
31,mahebourg,-20.4081,57.7,79.25,84,96,1.63,MU,1674961401
32,new norfolk,-42.7826,147.0587,75.70400000000006,32,0,0.89,AU,1674961402
33,ulaangom,49.9811,92.0667,-16.797999999999973,94,85,0.62,MN,1674961290
34,bere,9.3202,16.1552,77.77400000000002,20,100,1.72,TD,1674961404
35,punta arenas,-53.15,-70.9167,55.11200000000006,54,22,8.42,CL,1674961334
36,bathsheba,13.2167,-59.5167,72.21200000000006,68,20,3.09,BB,1674961406
37,hambantota,6.1241,81.1185,68.342,94,20,0.0,LK,1674961407
38,makat,47.6469,53.3463,24.728000000000065,85,40,3.67,KZ,1674961408
39,nikolskoye,59.7035,30.7861,28.291999999999994,89,100,4.67,RU,1674961412
40,vaini,-21.2,-175.2,80.76200000000006,89,75,2.06,TO,1674961413
41,east london,-33.0153,27.9116,65.78600000000007,77,100,7.01,ZA,1674961414
42,la ronge,55.1001,-105.2842,-8.265999999999956,89,100,5.76,CA,1674961416
43,medeiros neto,-17.3739,-40.2206,71.88800000000005,95,61,2.46,BR,1674961416
44,cidreira,-30.1811,-50.2056,75.34400000000008,90,78,0.19,BR,1674961418
45,upernavik,72.7868,-56.1549,3.8660000000000068,86,100,12.12,GL,1674961418
46,iqaluit,63.7506,-68.5145,-41.87199999999994,98,69,1.81,CA,1674961419
47,noumea,-22.2763,166.4572,78.99800000000002,99,100,1.48,NC,1674961419
48,bluff,-46.6,168.3333,64.77800000000008,51,0,2.13,NZ,1674961420
49,yoichi,43.2039,140.7703,20.299999999999997,69,81,4.37,JP,1674961422
50,esperance,-33.8667,121.9,69.60200000000009,51,1,3.85,AU,1674961423
51,oussouye,12.485,-16.5469,72.1760000000001,30,65,2.53,SN,1674961423
52,faanui,-16.4833,-151.75,81.48200000000003,72,9,5.19,PF,1674961424
53,baykit,61.67,96.37,2.2280000000000655,98,100,0.84,RU,1674961424
54,puerto ayora,-0.7393,-90.3518,75.542,99,58,0.45,EC,1674961425
55,tabou,4.423,-7.3528,77.684,88,46,2.3,CI,1674961425
56,port-gentil,-0.7193,8.7815,80.56400000000004,74,25,2.62,GA,1674961426
57,rundu,-17.9333,19.7667,66.14600000000004,82,100,2.39,NA,1674961426
58,hithadhoo,-0.6,73.0833,81.08600000000007,77,11,5.06,MV,1674961428
59,serrana,-21.2114,-47.5956,73.34600000000006,96,100,0.99,BR,1674961429
60,nanortalik,60.1432,-45.2371,18.01400000000003,74,47,9.3,GL,1674961430
61,saskylakh,71.9167,114.0833,-32.78199999999997,100,100,1.31,RU,1674961430
62,ushuaia,-54.8,-68.3,47.26400000000003,85,54,3.73,AR,1674961431
63,qaanaaq,77.484,-69.3632,-2.091999999999949,62,94,3.21,GL,1674961432
64,batangafo,7.3008,18.2833,71.708,21,62,0.79,CF,1674961432
65,bredasdorp,-34.5322,20.0403,63.37400000000001,51,100,5.71,ZA,1674961433
66,roding,49.1964,12.5186,27.35600000000003,96,43,0.85,DE,1674961395
67,orange cove,36.6244,-119.3137,52.610000000000085,88,0,0.0,US,1674961434
68,constitucion,-35.3333,-72.4167,60.728000000000065,69,0,4.91,CL,1674961434
69,beroroha,-21.6667,45.1667,74.40800000000002,89,100,3.48,MG,1674961435
70,parakou,9.3372,2.6303,78.53000000000004,69,92,2.62,BJ,1674961435
71,albany,42.6001,-73.9662,31.22600000000009,81,100,1.07,US,1674961229
72,mercedes,-34.6515,-59.4307,75.63200000000002,82,0,3.31,AR,1674961436
73,kavaratti,10.5669,72.642,79.53800000000004,73,12,4.99,IN,1674961437
74,hede,33.7681,120.2517,44.041999999999994,29,0,5.9,CN,1674961438
75,victoria,22.2855,114.1577,58.02800000000006,32,6,4.92,HK,1674961212
76,tuktoyaktuk,69.4541,-133.0374,1.1300000000000416,96,100,4.06,CA,1674961438
77,nenjiang,49.1833,125.2167,-4.341999999999949,93,100,1.73,CN,1674961439
78,geraldton,-28.7667,114.6,102.61400000000003,21,1,9.26,AU,1674961439
79,muros,42.7762,-9.0603,40.838000000000044,81,4,7.18,ES,1674961440
80,edson,53.5835,-116.4356,0.5180000000000327,79,58,5.43,CA,1674961231
81,jamestown,42.097,-79.2353,30.02000000000006,89,99,0.89,US,1674961235
82,yellowknife,62.456,-114.3525,-13.449999999999953,76,0,4.63,CA,1674961146
83,akhalgori,42.126,44.4833,34.46600000000001,62,100,0.75,GE,1674961444
84,jian,27.1172,114.9793,46.36400000000003,31,4,0.79,CN,1674961445
85,hobart,-42.8794,147.3294,76.04600000000005,44,20,4.12,AU,1674961222
86,moscow,55.7522,37.6156,26.78000000000004,95,100,2.56,RU,1674960853
87,hilo,19.7297,-155.09,74.24600000000005,86,100,0.89,US,1674961265
88,banda aceh,5.5577,95.3222,80.99600000000005,79,99,4.59,ID,1674961447
89,tiksi,71.6872,128.8694,-27.273999999999965,96,100,3.08,RU,1674961449
90,trelew,-43.249,-65.3051,77.37800000000007,23,2,6.12,AR,1674961348
91,vila franca do campo,37.7167,-25.4333,54.01400000000004,82,52,4.07,PT,1674961450
92,siemiatycze,52.4272,22.8623,24.728000000000065,87,62,3.81,PL,1674961451
93,puerto quijarro,-17.7833,-57.7667,72.93200000000002,99,87,1.07,BO,1674961452
94,hasaki,35.7333,140.8333,46.291999999999994,35,51,2.65,JP,1674961453
95,gorin,51.1983,136.6669,-14.421999999999933,88,74,3.49,RU,1674961454
96,kharsia,21.9667,83.1167,71.042,40,0,2.92,IN,1674961455
97,harboore,56.6175,8.1807,41.14400000000008,92,91,9.6,DK,1674961457
98,tuatapere,-46.1333,167.6833,70.98800000000006,41,2,4.16,NZ,1674961458
99,saldanha,-33.0117,17.9442,60.13399999999999,76,3,6.72,ZA,1674961459
100,pevek,69.7008,170.3133,9.08600000000007,85,10,6.14,RU,1674961459
101,salgueiro,-8.0742,-39.1192,74.89400000000008,54,46,6.95,BR,1674961461
102,thurles,52.6819,-7.8022,39.61400000000003,98,100,2.01,IE,1674961462
103,tucuma,-0.1833,-50.05,74.22800000000007,93,87,2.19,BR,1674961434
104,haines junction,60.7522,-137.5108,4.13600000000007,100,74,0.69,CA,1674961465
105,tirau,-37.9833,175.75,73.14800000000002,91,100,6.24,NZ,1674961298
106,berezovyy,51.6667,135.7,-5.673999999999964,81,12,1.28,RU,1674961466
107,dikson,73.5069,80.5464,-7.941999999999943,96,99,2.72,RU,1674961467
108,bambous virieux,-20.3428,57.7575,79.21400000000003,85,93,1.7,MU,1674961468
109,srednekolymsk,67.45,153.6833,-27.363999999999983,99,42,2.07,RU,1674961469
110,san andres,12.5847,-81.7006,80.61800000000008,74,75,8.23,CO,1674961471
111,chilakalurupet,16.0833,80.1667,72.69800000000004,77,7,2.22,IN,1674961472
112,mataura,-46.1927,168.8643,81.62600000000009,28,1,2.35,NZ,1674961475
113,les escoumins,48.1111,-69.0236,7.970000000000059,77,6,6.52,CA,1674961476
114,kalmunai,7.4167,81.8167,73.97600000000008,84,94,4.62,LK,1674961477
115,airai,-8.9266,125.4092,72.80600000000004,71,71,1.04,TL,1674961477
116,kungsbacka,57.4872,12.0761,40.24400000000007,89,100,5.81,SE,1674961479
117,skibbereen,51.55,-9.2667,44.11400000000003,83,91,4.41,IE,1674961479
118,ipixuna,-1.7625,-48.8043,72.64400000000008,98,80,1.27,BR,1674961480
119,ucluelet,48.9329,-125.5528,39.092,82,2,5.07,CA,1674961230
120,batagay-alyta,67.8006,130.4114,-36.38199999999996,97,99,0.38,RU,1674961481
121,kalabo,-14.97,22.6814,65.78600000000007,96,100,1.92,ZM,1674961481
122,port elizabeth,-33.918,25.5701,62.312000000000054,82,77,4.08,ZA,1674961482
123,torbay,47.6666,-52.7314,28.27400000000001,81,82,0.45,CA,1674961230
124,ahuimanu,21.4447,-157.8378,74.91200000000006,81,75,5.14,US,1674961483
125,samarai,-10.6167,150.6667,84.74000000000002,71,77,4.17,PG,1674961483
126,eureka,40.8021,-124.1637,47.67800000000007,85,100,0.89,US,1674961229
127,tomatlan,19.9333,-105.25,73.59800000000003,58,100,0.68,MX,1674961484
128,lavrentiya,65.5833,-171.0,19.886000000000067,96,98,1.24,RU,1674961485
129,necochea,-38.5473,-58.7368,63.01400000000004,88,0,4.77,AR,1674961226
130,nabire,-3.3667,135.4833,85.29800000000003,68,100,2.15,ID,1674961487
131,norman wells,65.282,-126.8329,-4.845999999999947,88,99,2.61,CA,1674961487
132,balotra,25.8333,72.2333,62.51000000000008,40,95,1.66,IN,1674961488
133,bartica,6.4,-58.6167,67.44200000000001,94,54,1.27,GY,1674961488
134,busselton,-33.65,115.3333,79.98800000000006,38,67,1.74,AU,1674961489
135,sao sebastiao,-23.76,-45.4097,75.72200000000004,92,100,2.06,BR,1674961490
136,nome,64.5011,-165.4064,24.872000000000035,93,100,3.6,US,1674961407
137,barrow,71.2906,-156.7887,-3.981999999999964,77,100,0.0,US,1674961490
138,nuuk,64.1835,-51.7216,13.028000000000066,71,100,6.47,GL,1674961491
139,luderitz,-26.6481,15.1594,62.18600000000007,79,0,9.6,NA,1674961492
140,labuhan,-6.8844,112.2051,81.93200000000002,76,98,2.17,ID,1674961492
141,nemuro,43.3236,145.575,23.07200000000004,65,100,10.02,JP,1674961493
142,provideniya,64.3833,-173.3,27.23000000000004,95,100,2.27,RU,1674961493
143,cherskiy,68.75,161.3,-24.39399999999997,99,88,1.55,RU,1674961494
144,saint-augustin,51.226,-58.6502,15.8,94,100,0.84,CA,1674961494
145,miles city,46.4083,-105.8406,2.3720000000000354,66,20,3.6,US,1674961495
146,vanimo,-2.6741,141.3028,86.19800000000004,64,91,3.37,PG,1674961496
147,vostok,46.4856,135.8833,-5.763999999999982,79,6,1.28,RU,1674961497
148,mondlo,-27.983,30.7177,63.41000000000008,88,100,2.66,ZA,1674961497
149,roald,62.5833,6.1333,42.09800000000003,87,100,7.72,NO,1674961498
150,luohe,33.5717,114.0353,49.51400000000004,15,0,7.75,CN,1674961226
151,port blair,11.6667,92.75,82.4,69,6,8.02,IN,1674961499
152,kyaukse,21.6,96.1333,69.80000000000001,73,0,1.03,MM,1674961500
153,kahului,20.8947,-156.47,70.84400000000008,95,100,0.45,US,1674961215
154,oranjemund,-28.55,16.4333,60.17000000000006,92,27,6.06,NA,1674961500
155,saint-philippe,-21.3585,55.7679,78.38600000000008,87,99,1.34,RE,1674961501
156,beringovskiy,63.05,179.3167,21.77600000000009,100,72,2.6,RU,1674961502
157,castro,-24.7911,-50.0119,63.446000000000055,64,22,0.93,BR,1674961329
158,lorengau,-2.0226,147.2712,84.65,69,61,3.53,PG,1674961304
159,mahibadhoo,3.7833,72.9667,79.95200000000008,76,26,3.64,MV,1674961322
160,ust-nera,64.5667,143.2,-20.64999999999995,96,100,1.32,RU,1674961506
161,port hardy,50.6996,-127.4199,38.588000000000044,51,0,6.2,CA,1674961509
162,vardo,70.3705,31.1107,26.99600000000005,82,7,8.02,NO,1674961510
163,sompeta,18.9333,84.6,75.65,68,45,2.8,IN,1674961511
164,georgetown,5.4112,100.3354,84.12800000000007,72,20,2.06,MY,1674961238
165,chara,56.9064,118.2631,-1.1559999999999775,84,98,1.14,RU,1674961513
166,salon,26.0333,81.45,55.99400000000007,53,0,2.11,IN,1674961514
167,yulara,-25.2406,130.9889,87.24199999999999,47,72,1.93,AU,1674961515
168,dicabisagan,17.0818,122.4157,70.91600000000001,86,100,4.56,PH,1674961516
169,bani walid,31.7566,13.9942,44.88800000000005,41,0,2.73,LY,1674961517
170,sakakah,29.9697,40.2064,57.16400000000003,44,100,3.41,SA,1674961511
171,ocampo,21.65,-101.5,55.59800000000003,44,90,4.89,MX,1674961519
172,caibarien,22.5206,-79.4669,72.71600000000001,81,14,8.19,CU,1674961520
173,zonguldak,41.25,31.8333,34.754000000000055,96,100,2.71,TR,1674961352
174,flinders,-34.5833,150.8552,74.80400000000006,87,100,0.71,AU,1674961522
175,zdunska wola,51.5992,18.9397,28.706000000000028,79,11,0.45,PL,1674961524
176,peleduy,59.6289,112.7406,-3.2439999999999714,96,95,1.18,RU,1674961525
177,ketchikan,55.3422,-131.6461,39.182000000000016,69,0,0.0,US,1674961526
178,jiexiu,37.0244,111.9125,33.62000000000006,19,0,3.84,CN,1674961528
179,puerto escondido,15.85,-97.0667,79.62800000000007,73,0,1.54,MX,1674961529
180,emerald,-23.5333,148.1667,87.35,53,0,5.24,AU,1674961530
181,laukaa,58.7372,29.8453,26.888000000000044,92,97,4.42,RU,1674961532
182,jamui,24.9167,86.2167,61.754000000000055,42,0,1.54,IN,1674961533
183,grand forks,47.9417,-97.4337,-7.671999999999933,71,0,6.17,US,1674961534
184,rawson,-43.3002,-65.1023,74.75,32,3,6.79,AR,1674961286
185,pandan,14.0453,124.1694,76.44200000000001,84,99,9.6,PH,1674961537
186,kathmandu,27.7167,85.3167,46.61600000000001,81,20,0.0,NP,1674961269
187,dwarka,22.2394,68.9678,65.76800000000009,43,0,4.95,IN,1674961538
188,balikpapan,-1.2675,116.8289,77.99000000000002,89,75,2.06,ID,1674961539
189,ossora,59.2353,163.0719,31.082000000000015,91,100,8.85,RU,1674961540
190,leningradskiy,69.3833,178.4167,0.6620000000000559,91,25,1.97,RU,1674961540
191,mattru,7.6244,-11.8332,73.83200000000002,96,90,0.84,SL,1674961541
192,pohrebyshche,49.4864,29.2636,25.34000000000002,84,14,3.17,UA,1674961541
193,ahipara,-35.1667,173.1667,75.11000000000008,74,85,4.25,NZ,1674961542
194,upata,8.0086,-62.3989,71.18600000000006,89,37,1.67,VE,1674961292
195,florence,43.7667,11.25,41.73800000000004,69,0,2.57,IT,1674961543
196,quimperle,47.8667,-3.55,39.92000000000006,75,100,2.06,FR,1674961543
197,akureyri,65.6835,-18.0878,29.3,88,74,4.66,IS,1674961544
198,ancud,-41.8697,-73.8203,57.56000000000009,94,6,1.71,CL,1674961406
199,altamira,-3.2033,-52.2064,71.16800000000009,97,98,0.71,BR,1674961545
200,udachnyy,66.4167,112.4,-41.799999999999955,100,69,1.25,RU,1674961545
201,padang,-0.9492,100.3543,82.45400000000006,69,100,2.11,ID,1674961546
202,lata,40.1629,-8.3327,44.07800000000007,79,0,2.48,PT,1674961547
203,puerto padre,21.195,-76.6028,75.63200000000002,70,63,6.43,CU,1674961547
204,nyagan,62.1406,65.3936,6.8540000000000525,96,88,2.45,RU,1674961548
205,crixas,-14.5489,-49.9692,70.32200000000003,91,4,1.04,BR,1674961550
206,broken hill,-31.95,141.4333,67.29800000000003,76,100,4.93,AU,1674961552
207,aklavik,68.2191,-135.0107,2.1380000000000443,94,99,0.97,CA,1674961552
208,magdagachi,53.45,125.8,-9.18399999999994,91,100,0.37,RU,1674961553
209,sri aman,1.2376,111.4621,82.00400000000005,86,78,0.78,MY,1674961553
210,arona,28.0996,-16.681,56.82200000000004,63,40,4.12,ES,1674961554
211,richards bay,-28.783,32.0377,72.71600000000001,88,100,7.55,ZA,1674961554
212,sol-iletsk,51.1631,54.9918,-4.557999999999957,100,83,1.45,RU,1674961555
213,hamilton,39.1834,-84.5333,51.56600000000001,46,100,2.06,US,1674961412
214,andenes,69.3143,16.1194,35.582000000000015,87,75,5.14,NO,1674961557
215,pitimbu,-7.4706,-34.8086,75.79400000000007,64,69,4.51,BR,1674961557
216,poum,-20.2333,164.0167,79.03399999999999,79,100,2.9,NC,1674961558
217,sorland,67.667,12.6934,37.25600000000003,63,100,8.85,NO,1674961559
218,port lincoln,-34.7333,135.8667,64.97600000000008,76,100,6.3,AU,1674961559
219,phonhong,18.5007,102.4166,65.91200000000006,43,1,1.34,LA,1674961560
220,katangli,51.7102,143.2326,-1.371999999999936,74,90,6.62,RU,1674961561
221,tura,25.5198,90.2201,71.63600000000008,44,0,0.47,IN,1674961562
222,severo-kurilsk,50.6789,156.125,25.178000000000065,79,100,8.55,RU,1674961564
223,kandrian,-6.2167,149.55,86.16200000000006,64,99,2.74,PG,1674961564
224,singaraja,-8.112,115.0882,83.49800000000002,76,100,0.75,ID,1674961566
225,koslan,63.4564,48.8989,14.414000000000033,90,100,4.7,RU,1674961568
226,kaitangata,-46.2817,169.8464,67.82000000000006,56,2,3.04,NZ,1674961569
227,honningsvag,70.9821,25.9704,29.948000000000025,93,100,9.77,NO,1674961571
228,tres arroyos,-38.3739,-60.2798,66.21800000000009,70,0,4.03,AR,1674961572
229,beirut,33.8889,35.4944,53.38399999999999,64,42,1.81,LB,1674961574
230,san cristobal,7.7669,-72.225,64.58000000000004,86,2,0.78,VE,1674961575
231,henties bay,-22.116,14.2845,64.47200000000004,82,69,2.69,NA,1674961577
232,port keats,-14.25,129.55,84.57800000000006,73,100,0.94,AU,1674961578
233,camocim,-2.9022,-40.8411,75.90200000000007,88,8,3.69,BR,1674961579
234,meulaboh,4.1363,96.1285,80.9600000000001,76,97,1.35,ID,1674961580
235,kulunda,52.566,78.9385,4.748000000000022,91,34,5.23,RU,1674961581
236,wajir,1.7471,40.0573,70.95200000000008,79,2,4.74,KE,1674961584
237,mount gambier,-37.8333,140.7667,68.558,55,77,4.4,AU,1674961585
238,korsakov,46.6328,142.7813,15.638000000000044,73,100,6.38,RU,1674961586
239,bilma,18.6853,12.9164,70.25,15,100,3.55,NE,1674961587
240,gushikawa,26.3544,127.8686,58.62200000000004,46,100,2.57,JP,1674961588
241,katsuura,35.1333,140.3,43.52000000000006,47,59,3.88,JP,1674961589
242,bagdarin,54.4333,113.6,5.899999999999999,72,4,1.15,RU,1674961590
243,nikel,69.4128,30.222,14.180000000000039,94,24,3.99,RU,1674961592
244,komsomolets,53.7453,62.0708,-5.583999999999939,100,14,2.19,KZ,1674961595
245,aksu,41.1231,80.2644,10.849999999999998,88,36,1.61,CN,1674961598
246,zarate,-34.0981,-59.0286,75.81200000000007,89,0,1.79,AR,1674961341
247,iskele,39.484,26.9278,44.69000000000002,81,75,5.66,TR,1674961599
248,pisco,-13.7,-76.2167,73.45400000000006,83,0,2.57,PE,1674961600
249,teahupoo,-17.8333,-149.2667,80.56400000000004,75,11,5.39,PF,1674961600
250,half moon bay,37.4636,-122.4286,51.87200000000004,79,100,6.17,US,1674961601
251,karratha,-20.7377,116.8463,93.29000000000002,33,4,1.75,AU,1674961602
252,souillac,-20.5167,57.5167,78.76400000000004,87,94,2.14,MU,1674961602
253,ilulissat,69.2167,-51.1,14.018000000000086,67,100,7.72,GL,1674961603
254,svetlyy,54.675,20.1347,32.97200000000004,94,100,7.18,RU,1674961603
255,carnarvon,-24.8667,113.6333,78.76400000000004,70,7,7.28,AU,1674961605
256,afonso claudio,-20.0742,-41.1239,71.02400000000002,99,63,0.77,BR,1674961606
257,cockburn town,21.4612,-71.1419,76.85600000000002,66,10,10.69,TC,1674961337
258,namibe,-15.1961,12.1522,75.03800000000004,80,100,1.65,AO,1674961580
259,muyezerskiy,63.9333,31.65,27.26600000000001,90,97,5.33,RU,1674961607
260,pastavy,55.1168,26.8326,21.92000000000006,91,78,4.27,BY,1674961608
261,alofi,-19.0595,-169.9187,81.1760000000001,76,98,3.61,NU,1674961608
262,guerrero negro,27.9769,-114.0611,58.55,65,11,4.39,MX,1674961609
263,rocha,-34.4833,-54.3333,68.97200000000004,97,11,2.58,UY,1674961610
264,veinticinco de mayo,-35.4323,-60.1727,72.98600000000008,83,0,1.79,AR,1674961610
265,longyearbyen,78.2186,15.6401,22.838000000000044,86,75,3.09,SJ,1674961377
266,sangar,63.9242,127.4739,-42.55599999999998,94,68,0.83,RU,1674961611
267,maceio,-9.6658,-35.7353,74.642,88,20,1.54,BR,1674961611
268,college,64.8569,-147.8028,18.068000000000083,87,100,2.06,US,1674961612
269,pires do rio,-17.2997,-48.2794,66.57800000000006,91,97,0.31,BR,1674961570
270,waingapu,-9.6567,120.2641,86.54000000000002,66,99,3.41,ID,1674961614
271,klaksvik,62.2266,-6.589,49.11800000000009,92,100,14.17,FO,1674961614
272,gouyave,12.1646,-61.7296,75.38000000000005,72,51,6.93,GD,1674961615
273,suozhen,36.9539,118.1047,41.45,18,0,5.64,CN,1674961617
274,buchanan,5.8808,-10.0467,77.342,91,84,1.57,LR,1674961617
275,birjand,32.8663,59.2211,27.80600000000003,85,62,1.39,IR,1674961618
276,eirunepe,-6.6603,-69.8736,71.90600000000003,97,96,0.84,BR,1674961619
277,minsk,53.9,27.5667,28.148000000000025,98,78,2.29,BY,1674961320
278,cairns,-16.9167,145.7667,92.10200000000009,74,56,5.14,AU,1674961456
279,clyde river,70.4692,-68.5914,-7.365999999999957,77,100,2.57,CA,1674961620
280,gushi,34.6425,109.5843,41.81000000000008,16,0,2.27,CN,1674961621
281,manakara,-22.1333,48.0167,74.01200000000006,84,58,2.31,MG,1674961621
282,amalapuram,16.5833,82.0167,77.52200000000005,69,42,2.99,IN,1674961458
283,tessalit,20.1986,1.0114,49.44199999999999,16,13,3.59,ML,1674961625
284,vestmannaeyjar,63.4427,-20.2734,40.49600000000005,69,98,13.33,IS,1674961626
285,maniitsoq,65.4167,-52.9,11.87600000000009,92,100,6.52,GL,1674961627
286,baghdad,33.3406,44.4009,51.71000000000008,66,100,8.23,IQ,1674960879
287,bara,10.3744,10.7288,70.75400000000005,43,66,0.31,NG,1674961628
288,salmon arm,50.6998,-119.3024,23.61200000000006,93,98,1.8,CA,1674961533
289,san luis,-33.295,-66.3356,70.07000000000006,66,7,5.68,AR,1674961631
290,butaritari,3.0707,172.7902,81.15800000000002,81,2,9.88,KI,1674961632
291,cayenne,4.9333,-52.3333,73.43600000000006,100,75,1.54,GF,1674961633
292,cabedelo,-6.9811,-34.8339,75.86600000000001,71,16,4.39,BR,1674961633
293,warwick,41.7001,-71.4162,42.20600000000003,72,75,1.54,US,1674961634
294,culfa,38.9558,45.6308,28.27400000000001,95,100,0.58,AZ,1674961636
295,huilong,31.8111,121.655,42.92600000000009,36,0,6.15,CN,1674961637
296,avera,33.194,-82.5271,42.908,59,95,2.13,US,1674961639
297,marabba,12.35,32.1833,73.47200000000004,23,98,5.32,SD,1674961640
298,grand gaube,-20.0064,57.6608,79.37600000000009,91,62,2.71,MU,1674961642
299,yinchuan,38.4681,106.2731,24.332000000000015,24,0,1.67,CN,1674961643
300,coihaique,-45.5752,-72.0662,59.61200000000006,88,20,1.03,CL,1674961645
301,netrakona,24.8833,90.7167,69.22400000000002,52,2,2.67,BD,1674961647
302,talnakh,69.4865,88.3972,-9.309999999999981,99,86,1.91,RU,1674961648
303,kudahuvadhoo,2.6708,72.8944,80.52800000000008,76,7,4.85,MV,1674961649
304,harper,4.375,-7.7169,78.08000000000004,85,23,2.39,LR,1674961650
305,makakilo city,21.3469,-158.0858,73.72400000000002,72,0,7.2,US,1674961651
306,trairi,-3.2778,-39.2689,78.566,78,87,4.53,BR,1674961460
307,walvis bay,-22.9575,14.5053,63.08600000000007,90,46,1.93,NA,1674961653
308,chokurdakh,70.6333,147.9167,-21.981999999999964,97,100,0.81,RU,1674961654
309,samana,19.2056,-69.3369,73.04000000000002,71,4,3.62,DO,1674961655
310,uyuni,-20.4597,-66.825,54.41000000000008,57,95,7.37,BO,1674961656
311,jalu,29.0331,21.5482,51.71000000000008,57,4,4.51,LY,1674961658
312,havre-saint-pierre,50.2334,-63.5986,30.56000000000008,80,100,8.23,CA,1674961659
313,itoman,26.1247,127.6694,59.39600000000005,51,75,3.6,JP,1674961659
314,yuli,9.6989,10.2744,78.09800000000003,45,60,1.87,NG,1674961663
315,glyadyanskoye,54.9075,65.0883,-5.169999999999959,100,56,2.07,RU,1674961663
316,ho chi minh city,10.75,106.6667,77.01800000000009,61,75,2.06,VN,1674961664
317,saint george,37.1041,-113.5841,45.95,50,0,1.54,US,1674961598
318,rebrikha,53.0733,82.3408,7.591999999999995,86,75,6.47,RU,1674961665
319,vila velha,-20.3297,-40.2925,77.95400000000006,92,40,4.02,BR,1674961665
320,barra do garcas,-15.89,-52.2567,70.86200000000005,95,12,0.47,BR,1674961666
321,morehead,37.2711,-87.1764,49.85600000000003,68,100,6.17,US,1674961667
322,narrabri,-30.3167,149.7833,95.52200000000005,37,4,1.79,AU,1674961667
323,canton,23.1167,113.25,55.346000000000046,20,2,3.53,CN,1674961573
324,williams lake,52.1415,-122.1445,-1.6959999999999482,95,30,1.72,CA,1674961668
325,asau,46.4333,26.4,29.318000000000087,93,95,1.87,RO,1674961668
326,gizo,-8.103,156.8419,84.092,71,61,1.73,SB,1674961669
327,pinotepa nacional,16.3167,-98.0167,71.22200000000004,82,2,1.01,MX,1674961669
328,kodinsk,58.6881,99.1844,13.226000000000088,96,100,1.61,RU,1674961670
329,north battleford,52.7834,-108.2847,-0.30999999999998096,71,100,5.66,CA,1674961670
330,tasiilaq,65.6145,-37.6368,23.162000000000056,93,100,0.54,GL,1674961405
331,wegorzewo,54.2157,21.7372,26.09600000000005,96,95,4.34,PL,1674961671
332,esteio,-29.8614,-51.1792,75.38000000000005,91,20,1.03,BR,1674961672
333,chik ballapur,13.4342,77.7242,58.820000000000064,45,84,2.23,IN,1674961672
334,thabazimbi,-24.5917,27.4116,74.75,33,88,1.79,ZA,1674961673
335,celestun,20.8667,-90.4,73.34600000000006,87,9,5.58,MX,1674961673
336,thompson,55.7435,-97.8558,-12.747999999999976,88,100,3.89,CA,1674961466
337,fortuna,40.5982,-124.1573,46.742,88,100,3.6,US,1674961674
338,along,28.1667,94.7667,67.01000000000008,48,2,0.27,IN,1674961675
339,paranaiba,-19.6772,-51.1908,70.46600000000001,94,74,2.62,BR,1674961675
340,cabo san lucas,22.8909,-109.9124,67.51400000000004,78,20,1.03,MX,1674961543
341,soligalich,59.0778,42.2864,7.178000000000065,97,100,3.83,RU,1674961676
342,taoudenni,22.6783,-3.9836,56.73200000000001,25,43,2.49,ML,1674961677
343,usinsk,65.9939,57.5281,16.232000000000014,95,100,7.4,RU,1674961677
344,byron bay,-28.65,153.6167,89.94200000000001,70,49,4.69,AU,1674961434
345,coolidge,32.9778,-111.5176,53.38399999999999,43,0,2.57,US,1674961678
346,bethel,41.3712,-73.414,44.94199999999999,54,0,0.0,US,1674961601
347,westport,41.1415,-73.3579,47.174000000000014,66,0,1.79,US,1674961679
348,hervey bay,-25.2986,152.8535,82.41800000000009,59,0,3.57,AU,1674961679
349,burnie,-41.0667,145.9167,74.94800000000004,36,0,5.98,AU,1674961680
350,luanda,-8.8368,13.2343,77.73800000000006,83,100,2.22,AO,1674961450
351,porbandar,21.6422,69.6093,66.07400000000001,46,0,3.07,IN,1674961681
352,conceicao do araguaia,-8.2578,-49.2647,73.292,92,100,0.72,BR,1674961681
353,senekal,-28.3197,27.6208,64.58000000000004,71,54,6.25,ZA,1674961684
354,port-cartier,50.0334,-66.8654,7.826000000000089,71,67,7.3,CA,1674961686
355,adre,13.4667,22.2,68.16200000000006,14,67,3.72,TD,1674961687
356,lompoc,34.6391,-120.4579,52.52000000000007,84,100,8.05,US,1674961688
357,viedma,-40.8135,-62.9967,74.82200000000003,38,0,6.23,AR,1674961689
358,brae,60.3964,-1.353,46.202000000000076,92,100,15.42,GB,1674961690
359,malanje,-9.5402,16.341,62.708000000000006,99,100,1.21,AO,1674961691
360,sibolga,1.7427,98.7792,82.83200000000002,66,100,0.36,ID,1674961692
361,sao filipe,14.8961,-24.4956,73.25600000000003,66,37,4.38,CV,1674961693
362,puerto colombia,10.9878,-74.9547,78.89000000000001,75,8,14.64,CO,1674961694
363,luang prabang,19.8856,102.1347,68.01800000000009,48,4,1.78,LA,1674961695
364,san patricio,28.017,-97.5169,68.84600000000006,87,100,6.69,US,1674961696
365,pahrump,36.2083,-115.9839,45.95,42,2,0.45,US,1674961697
366,buarcos,40.166,-8.8768,43.214000000000034,65,0,7.78,PT,1674961698
367,narsaq,60.9167,-46.05,14.216000000000008,84,6,3.21,GL,1674961404
368,lasa,46.6166,10.7002,22.37000000000006,76,18,1.62,IT,1674961701
369,kununurra,-15.7667,128.7333,91.38200000000002,58,100,2.57,AU,1674961701
370,novovasylivka,46.8315,35.7536,34.73600000000007,92,95,2.28,UA,1674961703
371,isangel,-19.55,169.2667,85.17200000000004,70,82,1.27,VU,1674961704
372,bridlington,54.0831,-0.1919,43.898000000000025,90,88,5.09,GB,1674961706
373,gurupa,-1.405,-51.64,72.32000000000006,96,94,1.46,BR,1674961707
374,kangaba,11.9333,-8.4167,70.46600000000001,16,100,2.3,ML,1674961709
375,pontianak,-0.0333,109.3333,73.38200000000002,100,75,6.69,ID,1674961710
376,madras,13.0878,80.2785,80.58200000000002,78,40,3.09,IN,1674961658
377,zhaozhou,45.6833,125.3167,6.9800000000000395,83,96,3.69,CN,1674961713
378,nizhniy ingash,56.2,96.53,24.278000000000066,78,100,5.29,RU,1674961714
379,palauig,15.435,119.9045,80.49199999999999,61,32,2.73,PH,1674961716
380,plettenberg bay,-34.0527,23.3716,62.38399999999999,68,93,4.21,ZA,1674961717
381,savalou,7.9281,1.9756,79.30400000000006,73,81,2.51,BJ,1674961719
382,bonavista,48.6499,-53.1147,28.814000000000032,73,53,4.46,CA,1674961720
383,khatanga,71.9667,102.5,-33.915999999999954,98,96,2.42,RU,1674961720
384,sayyan,15.1718,44.3244,46.45400000000005,84,61,1.39,YE,1674961721
385,pundaguitan,6.3711,126.1689,79.71800000000009,79,100,2.18,PH,1674961721
386,changde,29.0464,111.6783,50.46800000000009,24,0,0.46,CN,1674961722
387,lagoa,39.05,-27.9833,57.524000000000015,71,59,8.3,PT,1674961722
388,bushenyi,-0.5853,30.2114,63.446000000000055,62,86,0.85,UG,1674961723
389,prado,-17.3411,-39.2208,75.434,90,27,2.33,BR,1674961723
390,esmeraldas,-19.7625,-44.3139,70.66400000000004,94,100,0.4,BR,1674961724
391,perevolotskiy,51.8763,54.1938,-5.7099999999999795,100,85,1.15,RU,1674961724
392,camacha,33.0833,-16.3333,54.82400000000001,67,40,6.17,PT,1674961725
393,vraca,43.8422,18.3955,29.12000000000006,100,100,2.06,BA,1674961725
394,khorixas,-20.3667,14.9667,66.29000000000002,56,91,3.4,NA,1674961726
395,houma,29.5958,-90.7195,64.4,78,100,5.66,US,1674961542
396,los andes,-32.8337,-70.5983,71.22200000000004,36,0,0.63,CL,1674961727
397,dindori,22.95,81.0833,69.27800000000008,41,0,1.52,IN,1674961727
398,hofn,64.2539,-15.2082,36.5,65,39,2.92,IS,1674961728
399,nouadhibou,20.931,-17.0347,61.538000000000046,72,6,8.37,MR,1674961729
400,sur,22.5667,59.5289,66.7760000000001,67,11,7.12,OM,1674961730
401,ixtapa,20.7,-105.2,71.22200000000004,94,100,2.06,MX,1674961731
402,maningrida,-12.0667,134.2667,85.11800000000008,71,89,3.48,AU,1674961732
403,bayji,34.9311,43.487,51.13399999999999,51,100,6.96,IQ,1674961732
404,baruun-urt,46.6806,113.2792,8.726000000000088,76,11,3.52,MN,1674961733
405,shelburne,44.0787,-80.2041,22.22600000000009,92,100,1.12,CA,1674961735
406,yeniseysk,58.4497,92.1703,17.636000000000067,95,100,3.92,RU,1674961735
407,valera,9.3178,-70.6036,68.21600000000001,84,16,1.8,VE,1674961736
408,dingle,10.9995,122.6711,80.72600000000008,79,100,7.35,PH,1674961736
409,hami,42.8,93.45,20.533999999999992,28,0,0.59,CN,1674961737
410,monterey,36.2505,-121.2516,43.898000000000025,89,1,3.0,US,1674961737
411,atocha,-20.9333,-66.2333,50.09000000000002,74,98,4.44,BO,1674961739
412,kaniama,-7.5667,24.1833,64.22000000000006,97,100,0.96,CD,1674961740
413,kavieng,-2.5744,150.7967,84.34400000000008,71,30,2.72,PG,1674961740
414,arlit,18.7369,7.3853,59.018000000000086,8,81,3.55,NE,1674961741
415,saint-paul,-21.0096,55.2707,78.90800000000002,84,100,2.04,RE,1674961741
416,belen,36.4891,36.2233,32.14400000000008,93,75,1.03,TR,1674961742
417,presidencia roque saenz pena,-26.7852,-60.4388,77.792,57,95,2.45,AR,1674961743
418,gubkinskiy,64.434,76.5026,4.28000000000004,96,100,4.33,RU,1674961744
419,suez,29.9737,32.5263,58.58600000000007,78,80,3.55,EG,1674961748
420,mukhen,48.1,136.1,-4.233999999999945,69,5,2.19,RU,1674961749
421,hualmay,-11.0964,-77.6139,71.88800000000005,81,100,2.98,PE,1674961753
422,nelson bay,-32.7167,152.15,93.25400000000005,85,76,10.73,AU,1674961754
423,khairpur nathan shah,27.0936,67.7337,55.72400000000002,32,90,2.07,PK,1674961755
424,praia,14.9215,-23.5087,68.54000000000002,83,20,7.72,CV,1674961756
425,mackenzie,55.2999,-123.1698,-12.027999999999963,97,6,1.05,CA,1674961757
426,vao,-22.6667,167.4833,75.21800000000009,80,100,1.43,NC,1674961758
427,kenai,60.5544,-151.2583,30.091999999999995,82,75,1.54,US,1674961628
428,sistranda,63.7256,8.834,37.36400000000003,96,100,13.15,NO,1674961762
429,muravlenko,63.7898,74.523,1.3640000000000327,96,100,4.33,RU,1674961765
430,tautira,-17.7333,-149.15,80.85200000000009,75,10,5.18,PF,1674961767
431,olinda,-8.0089,-34.8553,80.33000000000004,65,75,5.14,BR,1674961768
432,fare,-16.7,-151.0167,81.69800000000004,73,1,6.08,PF,1674961770
433,dauriya,49.9333,116.8667,-1.3539999999999495,95,27,2.0,RU,1674961771
434,asfi,32.2994,-9.2372,49.22600000000009,68,6,6.11,MA,1674961777
435,champasak,14.75,106.0,73.23800000000006,45,40,1.09,LA,1674961778
436,codrington,-38.2667,141.9667,67.64000000000001,59,82,4.65,AU,1674961779
437,shubarkuduk,49.1447,56.4872,4.820000000000061,99,94,1.93,KZ,1674961780
438,ust-kuyga,70.0167,135.6,-34.67199999999994,98,97,3.26,RU,1674961780
439,honiara,-9.4333,159.95,82.11200000000005,79,99,1.16,SB,1674961781
440,sand springs,36.1398,-96.1089,50.14400000000008,88,95,0.45,US,1674961781
441,olafsvik,64.8945,-23.7142,36.14000000000002,89,100,7.83,IS,1674961782
442,mountain home,43.133,-115.6912,29.678000000000065,97,100,4.63,US,1674961782
443,alta floresta,-9.8756,-56.0861,69.27800000000008,98,100,1.31,BR,1674961783
444,mareeba,-17.0,145.4333,88.484,71,51,4.01,AU,1674961784
445,pestovo,58.5938,35.8024,19.022000000000034,90,100,4.75,RU,1674961784
446,bardiyah,31.7561,25.0865,55.79600000000005,61,29,1.07,LY,1674961785
447,talara,-4.5772,-81.2719,72.46400000000003,81,92,4.15,PE,1674961785
448,khash,28.2211,61.2158,33.188000000000045,68,1,0.17,IR,1674961786
449,adrar,20.5022,-10.0711,51.08000000000004,50,97,2.81,MR,1674961786
450,cortes,41.9395,-1.4396,37.45400000000005,73,9,8.35,ES,1674961787
451,coquimbo,-29.9533,-71.3436,60.530000000000044,100,40,1.54,CL,1674961765
452,portland,45.5234,-122.6762,41.48600000000007,89,100,4.92,US,1674961020
453,ati,13.2154,18.3353,73.99400000000009,12,80,3.35,TD,1674961788
454,ambilobe,-13.2,49.05,73.74199999999999,93,34,0.79,MG,1674961789
455,touros,-5.1989,-35.4608,78.63800000000005,72,14,5.88,BR,1674961790
456,atar,20.5169,-13.0499,55.67000000000006,47,96,3.55,MR,1674961791
457,groningen,53.25,6.75,40.01000000000008,87,100,4.12,NL,1674961559
458,tindwari,25.6167,80.5333,55.65200000000008,42,0,2.43,IN,1674961792
459,sobradinho,-12.8333,-39.1,70.25,93,0,0.77,BR,1674961792
460,tiarei,-17.5333,-149.3333,86.01800000000009,73,6,5.56,PF,1674961793
461,stornoway,58.2093,-6.3865,48.16400000000003,92,100,9.77,GB,1674961793
462,jardim,-21.4803,-56.1381,72.44600000000005,95,64,1.74,BR,1674961794
463,tifton,31.4505,-83.5085,46.544000000000075,78,21,3.06,US,1674961794
464,mecca,21.4267,39.8261,71.94200000000001,56,4,0.79,SA,1674961795
465,khasan,42.4308,130.6434,12.830000000000041,74,100,2.6,RU,1674961795
466,lesnoy,57.6198,63.0784,8.833999999999993,92,24,3.92,RU,1674961796
467,capitan bado,-23.2667,-55.5333,71.45600000000003,82,59,3.04,PY,1674961796
468,mayenne,48.3333,-0.6667,35.041999999999994,89,19,1.31,FR,1674961797
469,catalao,-18.1658,-47.9464,66.434,91,99,0.36,BR,1674961798
470,asmar,35.0333,71.3581,45.69800000000002,75,100,5.47,AF,1674961798
471,bayir,37.2687,28.2167,36.122000000000035,92,100,1.39,TR,1674961799
472,kaeo,-35.1,173.7833,78.33200000000002,80,74,3.94,NZ,1674961799
473,supe,-10.8,-77.7333,71.69000000000003,81,100,2.46,PE,1674961800
474,aginskoye,51.1,114.53,11.804000000000052,79,6,5.1,RU,1674961801
475,waddan,29.1614,16.139,45.860000000000085,39,0,1.32,LY,1674961802
476,sao gabriel da cachoeira,-0.1303,-67.0892,72.42800000000007,97,97,0.47,BR,1674961803
477,kangaatsiaq,68.3065,-53.4641,9.014000000000031,84,100,6.47,GL,1674961806
478,montepuez,-13.1256,38.9997,69.674,96,100,2.57,MZ,1674961692
479,dvorichna,49.8496,37.6857,25.93399999999999,94,99,2.81,UA,1674961809
480,talcahuano,-36.7167,-73.1167,64.07600000000009,77,0,3.6,CL,1674961811
481,ushtobe,45.2514,77.9838,5.738000000000046,93,68,1.56,KZ,1674961815
482,shingu,33.7333,135.9833,45.35600000000003,50,79,6.29,JP,1674961816
483,pierre,44.3683,-100.351,4.8560000000000265,75,100,3.09,US,1674961808
484,moerai,-22.4333,-151.3333,79.26800000000009,77,75,3.91,PF,1674961818
485,bose,45.4612,8.0137,32.288000000000046,71,10,1.29,IT,1674961819
486,salalah,17.0151,54.0924,62.690000000000026,48,0,7.72,OM,1674961821
487,turangi,-39.0,175.9333,63.75200000000008,99,100,1.74,NZ,1674961822
488,dickinson,29.4608,-95.0513,70.16000000000008,87,100,7.72,US,1674961823
489,ramsar,36.9226,50.6426,49.190000000000026,70,100,1.51,IR,1674961824
490,troitsko-pechorsk,62.7084,56.1964,18.158,88,100,4.41,RU,1674961825
491,cedar city,37.6775,-113.0619,31.388000000000044,80,0,2.06,US,1674961827
492,yabrud,33.9674,36.6574,37.346000000000046,53,1,0.84,SY,1674961829
493,chicama,-7.8447,-79.1469,68.54000000000002,74,100,1.87,PE,1674961830
494,umm lajj,25.0213,37.2685,72.64400000000008,51,12,3.37,SA,1674961832
495,jinchang,38.4953,102.1739,28.633999999999993,19,29,0.61,CN,1674961833
496,makhinjauri,41.6739,41.694,48.056000000000026,66,75,9.26,GE,1674961834
497,hovd,48.0056,91.6419,2.2100000000000826,74,1,0.47,MN,1674961835
498,kologriv,58.8275,44.3178,1.670000000000062,100,96,3.22,RU,1674961836
499,yenagoa,4.9247,6.2642,76.49600000000005,92,4,0.91,NG,1674961838
500,tres picos,15.8667,-93.5333,75.63200000000002,73,64,1.81,MX,1674961839
501,roros,62.5747,11.3842,26.438000000000045,80,100,1.54,NO,1674961840
502,alghero,40.5589,8.3181,44.69000000000002,87,40,4.12,IT,1674961841
503,saint anthony,45.0205,-93.218,4.658000000000005,67,0,4.12,US,1674961842
504,kizlyar,43.8469,46.715,40.478000000000065,78,100,4.8,RU,1674961842
505,neyshabur,36.2133,58.7958,32.233999999999995,68,100,0.8,IR,1674961843
506,pio xii,-3.8325,-45.1525,72.10400000000006,96,77,1.28,BR,1674961844
507,naryan-mar,67.6713,53.087,21.74000000000002,96,100,5.48,RU,1674961844
508,panacan,9.2463,118.4082,82.00400000000005,77,74,9.14,PH,1674961845
509,okato,-39.2,173.8833,72.91400000000004,100,100,4.58,NZ,1674961845
510,cuamba,-14.8031,36.5372,67.64000000000001,99,88,1.29,MZ,1674961846
511,te anau,-45.4167,167.7167,80.94200000000001,25,0,1.86,NZ,1674961847
512,tramandai,-29.9847,-50.1336,75.00200000000008,89,54,0.9,BR,1674961847
513,puerto penasco,31.3167,-113.5333,53.906000000000034,84,0,1.34,MX,1674961848
514,magadan,59.5667,150.8,2.533999999999992,79,33,2.98,RU,1674961848
515,itaituba,-4.2761,-55.9836,73.058,99,100,0.79,BR,1674961849
516,chake chake,-5.2459,39.7666,78.63800000000005,71,86,3.22,TZ,1674961849
517,karatau,43.1667,70.4667,13.298000000000023,80,18,1.37,KZ,1674961850
518,jacareacanga,-6.2222,-57.7528,72.5,99,100,0.5,BR,1674961851
519,canavieiras,-15.675,-38.9472,75.00200000000008,88,12,1.2,BR,1674961852
520,tuim,54.3417,89.9261,16.682000000000016,65,100,4.65,RU,1674961852
521,wanning,18.8003,110.3967,63.733999999999995,51,3,6.04,CN,1674961853
522,nhulunbuy,-12.2333,136.7667,86.61200000000005,74,40,4.12,AU,1674961854
523,dakar,14.6937,-17.4441,65.28200000000001,62,8,8.76,SN,1674961503
524,vila,42.0304,-8.1588,29.282000000000018,87,12,2.26,PT,1674961855
525,champerico,14.3,-91.9167,78.62000000000006,71,71,2.57,GT,1674961856
526,lukang,24.0567,120.4352,71.43800000000005,58,6,6.07,TW,1674961856
527,evensk,61.95,159.2333,19.364000000000033,80,100,8.45,RU,1674961857
528,bakau,13.4781,-16.6819,66.34400000000008,59,0,2.57,GM,1674961859
529,grand-lahou,5.1367,-5.0242,78.31400000000004,90,13,4.24,CI,1674961860
530,shache,38.4167,77.2406,13.604000000000052,86,32,1.36,CN,1674961861
531,epernay,49.05,3.95,33.15200000000008,88,10,1.41,FR,1674961861
532,sanlucar la mayor,37.3871,-6.2011,40.766000000000005,69,2,0.89,ES,1674961863
533,abha,18.2164,42.5053,44.852000000000075,71,0,0.0,SA,1674961864
534,atasu,48.6814,71.6433,-10.06599999999996,98,11,1.56,KZ,1674961864
535,hohhot,40.8106,111.6522,18.176000000000087,42,0,1.28,CN,1674961866
536,alice springs,-23.7,133.8833,88.21400000000003,40,75,8.23,AU,1674961867
537,oktyabrskoye,43.0645,44.7417,24.944000000000074,100,100,1.0,RU,1674961868
538,zapolyarnyy,69.4154,30.8136,13.28000000000004,94,9,3.89,RU,1674961870
539,indianola,41.3581,-93.5574,14.486000000000068,80,100,5.81,US,1674961741
540,teguldet,57.3064,88.1667,13.874000000000013,91,100,5.6,RU,1674961872
541,baramati,18.15,74.5833,70.23200000000003,33,36,2.23,IN,1674961873
542,tulagi,-9.0996,160.1476,81.14000000000001,75,100,1.6,SB,1674961875
543,ramanuj ganj,23.8,83.7,63.66200000000006,38,0,1.22,IN,1674961876
544,casper,42.8666,-106.3131,1.9940000000000744,78,100,6.69,US,1674961877
545,belmonte,-15.8631,-38.8828,76.51400000000004,85,23,2.09,BR,1674961721
546,carauari,-4.8828,-66.8958,73.13000000000005,98,100,0.59,BR,1674961878
547,russell,32.3502,-85.1999,52.82600000000009,75,20,0.0,US,1674961879
548,fairbanks,64.8378,-147.7164,18.08600000000007,87,100,2.06,US,1674961844
549,dehui,44.5333,125.7,14.0,83,100,1.6,CN,1674961882
550,wlodawa,51.55,23.55,27.95,89,62,2.7,PL,1674961883
551,cheney,47.4874,-117.5758,20.282000000000018,55,0,9.26,US,1674961884
552,baindur,13.8667,74.6333,77.0,64,64,1.07,IN,1674961885
553,ballina,-28.8667,153.5667,88.01600000000002,73,49,5.27,AU,1674961886
554,kismayo,-0.3582,42.5454,75.95600000000003,80,5,6.94,SO,1674961887
555,saint-francois,46.4154,3.9054,35.041999999999994,69,100,3.6,FR,1674961888
556,mangan,27.5167,88.5333,67.55000000000001,36,0,1.51,IN,1674961889
557,jiuquan,39.7432,98.5174,22.28000000000004,39,23,0.98,CN,1674961890
558,aripuana,-9.1667,-60.6333,72.26600000000002,100,100,0.3,BR,1674961891
559,malindi,-3.2175,40.1191,74.37200000000004,85,11,2.69,KE,1674961893
