City_ID,City,Lat,Lng,Max Temp,Humidity,Cloudiness,Wind Speed,Country,Date
0,luderitz,-26.6481,15.1594,17.99000000000001,70,0,7.4,NA,1674874945
1,praia da vitoria,38.7333,-27.0667,12.640000000000043,92,77,5.88,PT,1674874946
2,kochi,9.9399,76.2602,23.99000000000001,77,11,2.2,IN,1674874857
3,elk city,35.412,-99.4043,2.1200000000000045,64,0,5.13,US,1674874946
4,punta arenas,-53.15,-70.9167,11.730000000000018,71,100,9.01,CL,1674874848
5,castro,-24.7911,-50.0119,16.30000000000001,96,18,2.32,BR,1674874948
6,kavieng,-2.5744,150.7967,29.29000000000002,69,58,4.24,PG,1674874949
7,kapaa,22.0752,-159.319,24.180000000000007,61,40,7.2,US,1674874949
8,chkalovskoye,44.8392,133.0436,-20.399999999999977,85,89,3.17,RU,1674874950
9,hilo,19.7297,-155.09,24.600000000000023,89,100,0.45,US,1674874951
10,issoudun,47.0,1.8333,2.830000000000041,87,100,4.63,FR,1674874951
11,busselton,-33.65,115.3333,22.980000000000018,34,0,2.01,AU,1674874952
12,souillac,-20.5167,57.5167,25.879999999999995,86,97,3.18,MU,1674874953
13,mahebourg,-20.4081,57.7,25.700000000000045,85,100,2.3,MU,1674874953
14,provideniya,64.3833,-173.3,-10.879999999999995,95,100,8.79,RU,1674874954
15,san cristobal,7.7669,-72.225,17.29000000000002,87,88,0.77,VE,1674874955
16,albany,42.6001,-73.9662,-0.8599999999999568,85,100,1.44,US,1674874852
17,ferrol,43.4832,-8.2369,7.600000000000023,80,90,5.96,ES,1674874956
18,tasiilaq,65.6145,-37.6368,-5.909999999999968,94,100,7.73,GL,1674874956
19,mataura,-46.1927,168.8643,23.680000000000007,29,2,2.76,NZ,1674874957
20,pacific grove,36.6177,-121.9166,11.400000000000034,89,75,2.06,US,1674874957
21,bluff,-46.6,168.3333,15.920000000000016,61,5,8.13,NZ,1674874958
22,avarua,-21.2078,-159.775,28.03000000000003,83,20,5.66,CK,1674874958
23,hermanus,-34.4187,19.2345,16.560000000000002,86,24,0.98,ZA,1674874959
24,san patricio,28.017,-97.5169,16.920000000000016,73,100,4.24,US,1674874959
25,clyde river,70.4692,-68.5914,-23.869999999999976,84,100,9.26,CA,1674874960
26,ushuaia,-54.8,-68.3,8.710000000000036,96,100,3.46,AR,1674874960
27,guerrero negro,27.9769,-114.0611,15.870000000000005,37,100,2.13,MX,1674874961
28,luena,-11.7833,19.9167,16.700000000000045,92,100,2.48,AO,1674874961
29,ust-kulom,61.6864,53.6902,-14.060000000000002,97,90,2.6,RU,1674874962
30,padang,-0.9492,100.3543,28.03000000000003,82,100,2.29,ID,1674874963
31,port alfred,-33.5906,26.891,22.879999999999995,90,57,3.13,ZA,1674874963
32,chuy,-33.6971,-53.4616,22.650000000000034,94,92,2.34,UY,1674874964
33,bonoua,5.2741,-3.595,26.79000000000002,89,52,2.52,CI,1674874964
34,flinders,-34.5833,150.8552,31.210000000000036,70,2,1.79,AU,1674874965
35,cape town,-33.9258,18.4232,22.430000000000007,80,8,3.58,ZA,1674874965
36,fortuna,40.5982,-124.1573,10.370000000000005,89,87,1.79,US,1674874966
37,rikitea,-23.1203,-134.9692,26.04000000000002,75,94,5.45,PF,1674874967
38,georgetown,5.4112,100.3354,27.960000000000036,71,20,4.12,MY,1674874910
39,aklavik,68.2191,-135.0107,-31.619999999999976,99,39,3.34,CA,1674874967
40,antofagasta,-23.65,-70.4,20.54000000000002,83,39,2.46,CL,1674874968
41,olafsvik,64.8945,-23.7142,2.330000000000041,98,100,6.68,IS,1674874968
42,airai,-8.9266,125.4092,23.510000000000048,67,100,0.66,TL,1674874969
43,nikolskoye,59.7035,30.7861,-4.560000000000002,95,49,2.06,RU,1674874971
44,vostok,46.4856,135.8833,-24.079999999999984,85,100,2.76,RU,1674874971
45,barrow,71.2906,-156.7887,-26.25999999999999,97,27,6.52,US,1674874689
46,tuatapere,-46.1333,167.6833,21.930000000000007,36,2,3.48,NZ,1674874972
47,ponta do sol,32.6667,-17.1,15.400000000000034,68,19,3.19,PT,1674874972
48,alofi,-19.0595,-169.9187,27.83000000000004,74,64,6.38,NU,1674874973
49,san quintin,30.4833,-115.95,12.980000000000018,50,78,0.77,MX,1674874974
50,leningradskiy,69.3833,178.4167,-26.369999999999976,91,17,3.75,RU,1674874975
51,usvyaty,55.7456,30.7533,-8.519999999999982,98,66,1.31,RU,1674874975
52,tigil,57.8,158.6667,-13.849999999999966,87,47,0.89,RU,1674874976
53,port hardy,50.6996,-127.4199,6.100000000000023,93,100,3.6,CA,1674874977
54,iberia,29.9502,-91.7507,8.04000000000002,76,75,1.54,US,1674874977
55,saint-philippe,-21.3585,55.7679,25.77000000000004,85,42,1.51,RE,1674874978
56,severo-kurilsk,50.6789,156.125,-3.169999999999959,71,66,5.89,RU,1674874978
57,jamestown,42.097,-79.2353,-1.2699999999999818,88,100,6.17,US,1674874775
58,te anau,-45.4167,167.7167,21.960000000000036,30,0,1.07,NZ,1674874979
59,the valley,18.217,-63.0578,22.83000000000004,69,19,8.67,AI,1674874807
60,bredasdorp,-34.5322,20.0403,18.010000000000048,88,2,2.05,ZA,1674874980
61,puerto ayora,-0.7393,-90.3518,24.189999999999998,94,38,0.45,EC,1674874981
62,chapais,49.7834,-74.8492,-13.120000000000005,88,100,6.07,CA,1674874981
63,kanakapura,12.55,77.4167,19.810000000000002,58,6,1.54,IN,1674874982
64,longyearbyen,78.2186,15.6401,-8.089999999999975,73,75,11.83,SJ,1674874983
65,cidreira,-30.1811,-50.2056,24.53000000000003,82,0,9.38,BR,1674874984
66,arraial do cabo,-22.9661,-42.0278,24.560000000000002,88,98,4.46,BR,1674874984
67,kodiak,57.79,-152.4072,2.730000000000018,93,40,2.57,US,1674874985
68,oranjestad,12.524,-70.027,25.53000000000003,78,9,9.29,AW,1674874838
69,garmsar,35.2182,52.3409,1.5900000000000318,57,3,1.99,IR,1674874986
70,alta,69.9689,23.2717,2.330000000000041,82,75,12.96,NO,1674874986
71,tuktoyaktuk,69.4541,-133.0374,-31.079999999999984,100,75,2.97,CA,1674874987
72,tiebissou,7.1574,-5.2257,22.80000000000001,82,90,2.13,CI,1674874987
73,upernavik,72.7868,-56.1549,-23.869999999999976,82,99,3.35,GL,1674874988
74,talnakh,69.4865,88.3972,-17.879999999999967,95,100,4.02,RU,1674874988
75,kavaratti,10.5669,72.642,26.450000000000045,72,2,3.07,IN,1674874989
76,namatanai,-3.6667,152.4333,29.730000000000018,67,92,2.42,PG,1674874990
77,nanortalik,60.1432,-45.2371,0.12000000000000455,92,100,9.43,GL,1674874990
78,visnes,59.3556,5.2242,6.230000000000018,93,75,7.2,NO,1674874991
79,bathsheba,13.2167,-59.5167,22.340000000000032,83,20,2.57,BB,1674874991
80,pimentel,-6.8367,-79.9342,23.160000000000025,73,75,5.66,PE,1674874992
81,hamilton,39.1834,-84.5333,7.740000000000009,60,75,6.17,US,1674874972
82,ribeira grande,38.5167,-28.7,13.210000000000036,82,17,6.26,PT,1674874993
83,alveringem,50.9793,2.6775,3.410000000000025,67,100,1.03,BE,1674874994
84,saldanha,-33.0117,17.9442,17.879999999999995,92,0,4.12,ZA,1674874995
85,los llanos de aridane,28.6585,-17.9182,13.860000000000014,80,75,6.69,ES,1674874996
86,cayenne,4.9333,-52.3333,23.02000000000004,94,100,1.03,GF,1674874996
87,vaini,-21.2,-175.2,29.090000000000032,79,75,2.57,TO,1674874997
88,kenai,60.5544,-151.2583,-1.0600000000000023,86,100,2.57,US,1674874997
89,port elizabeth,-33.918,25.5701,22.83000000000004,94,71,4.92,ZA,1674874817
90,tromso,69.6496,18.957,3.0100000000000477,75,100,6.17,NO,1674874873
91,vaitape,-16.5167,-151.75,27.25,73,4,5.6,PF,1674874998
92,stephenville,32.2207,-98.2023,9.960000000000036,55,0,4.63,US,1674874811
93,victoria,22.2855,114.1577,14.03000000000003,26,45,7.6,HK,1674874803
94,bethel,41.3712,-73.414,1.170000000000016,86,82,2.13,US,1674874920
95,cockburn town,21.4612,-71.1419,24.930000000000007,68,34,9.15,TC,1674875000
96,vila velha,-20.3297,-40.2925,24.970000000000027,94,75,3.58,BR,1674874703
97,geraldton,-28.7667,114.6,27.230000000000018,47,0,5.14,AU,1674875001
98,east london,-33.0153,27.9116,22.660000000000025,89,35,5.41,ZA,1674875001
99,jumla,29.2747,82.1838,6.240000000000009,19,0,1.84,NP,1674875002
100,gizo,-8.103,156.8419,28.410000000000025,73,62,0.96,SB,1674875002
101,norman wells,65.282,-126.8329,-23.96999999999997,99,87,3.62,CA,1674875003
102,sitka,57.0531,-135.33,3.2600000000000477,90,54,1.68,US,1674874859
103,hobart,-42.8794,147.3294,28.920000000000016,37,0,5.66,AU,1674874972
104,grand gaube,-20.0064,57.6608,25.77000000000004,90,100,0.45,MU,1674875004
105,coquimbo,-29.9533,-71.3436,18.840000000000032,74,0,1.83,CL,1674874870
106,pisco,-13.7,-76.2167,21.03000000000003,88,0,4.12,PE,1674875005
107,vao,-22.6667,167.4833,24.850000000000023,73,100,5.93,NC,1674875006
108,baykit,61.67,96.37,-12.560000000000002,97,100,2.08,RU,1674875006
109,pochutla,15.7432,-96.4661,24.900000000000034,69,26,1.38,MX,1674875007
110,kawhia,-38.0651,174.8183,21.950000000000045,92,90,4.15,NZ,1674875008
111,cabedelo,-6.9811,-34.8339,26.370000000000005,76,7,5.52,BR,1674875008
112,goldap,54.3063,22.3036,-1.25,81,100,1.71,PL,1674874968
113,rawson,-43.3002,-65.1023,19.370000000000005,43,3,8.68,AR,1674875009
114,luanda,-8.8368,13.2343,25.180000000000007,83,99,2.41,AO,1674874803
115,armizonskoye,55.9461,67.6736,-9.239999999999952,94,100,5.18,RU,1674875010
116,vila franca do campo,37.7167,-25.4333,13.230000000000018,85,40,3.72,PT,1674875011
117,goure,13.9835,10.2704,21.189999999999998,16,71,1.26,NE,1674875011
118,carnarvon,-24.8667,113.6333,27.82000000000005,52,0,7.17,AU,1674875012
119,mount gambier,-37.8333,140.7667,25.860000000000014,49,100,2.6,AU,1674875013
120,havelock,34.8791,-76.9013,7.180000000000007,80,40,1.45,US,1674875014
121,ancud,-41.8697,-73.8203,11.840000000000032,83,3,2.64,CL,1674875014
122,verkhoyansk,67.5447,133.385,-44.43999999999997,100,99,0.6,RU,1674875015
123,avera,33.194,-82.5271,2.730000000000018,63,63,2.84,US,1674875016
124,barbosa ferraz,-24.03,-52.0117,21.08000000000004,79,0,1.08,BR,1674875016
125,ternate,0.8,127.4,27.930000000000007,77,62,2.75,ID,1674875017
126,candido mendes,-1.4467,-45.7167,22.58000000000004,97,87,0.83,BR,1674875017
127,yagoua,10.3411,15.2329,24.99000000000001,16,100,2.82,CM,1674874939
128,alta floresta,-9.8756,-56.0861,21.189999999999998,99,100,0.98,BR,1674874905
129,ponta delgada,37.7333,-25.6667,13.400000000000034,82,40,3.6,PT,1674875018
130,mandapam,9.2833,79.1167,24.930000000000007,73,71,7.06,IN,1674875019
131,severnoye,56.3491,78.3619,-7.989999999999952,95,100,5.66,RU,1674875019
132,montemorelos,25.2,-99.8167,9.400000000000034,92,100,1.37,MX,1674874500
133,lavrentiya,65.5833,-171.0,-10.109999999999957,94,100,5.32,RU,1674875020
134,turochak,52.2576,87.1224,-14.67999999999995,98,94,1.11,RU,1674875021
135,meadow lake,34.8014,-106.5436,2.4399999999999977,46,0,1.44,US,1674874975
136,klaksvik,62.2266,-6.589,5.510000000000048,76,86,13.09,FO,1674875021
137,agadez,19.75,10.25,18.200000000000045,17,100,1.87,NE,1674875022
138,erdenet,49.0333,104.0833,-13.399999999999977,78,84,2.47,MN,1674875023
139,soyo,-6.1349,12.3689,23.450000000000045,91,99,7.0,AO,1674875023
140,innisfail,-17.5333,146.0333,29.610000000000014,69,40,2.61,AU,1674874773
141,kabwe,-14.4469,28.4464,17.960000000000036,99,100,2.83,ZM,1674875024
142,shemgang,27.2169,90.6579,10.670000000000016,69,82,1.08,BT,1674875025
143,xinpu,34.5997,119.1594,2.8000000000000114,26,0,4.49,CN,1674875025
144,ketchikan,55.3422,-131.6461,4.990000000000009,87,100,4.12,US,1674875026
145,ereymentau,51.6199,73.1033,-12.919999999999959,83,5,10.25,KZ,1674875026
146,teguise,29.0605,-13.564,14.120000000000005,72,0,2.57,ES,1674875027
147,broome,42.2506,-75.833,-0.7699999999999818,68,0,4.63,US,1674875027
148,pitimbu,-7.4706,-34.8086,26.33000000000004,77,4,4.57,BR,1674875028
149,thinadhoo,0.5333,72.9333,27.129999999999995,72,12,1.45,MV,1674875028
150,bandarbeyla,9.4942,50.8122,23.58000000000004,75,28,5.64,SO,1674875030
151,beyneu,45.3167,55.2,-3.7299999999999613,62,14,4.25,KZ,1674875030
152,council bluffs,41.2619,-95.8608,-0.5999999999999659,79,0,3.6,US,1674874804
153,codrington,-38.2667,141.9667,25.840000000000032,46,100,3.75,AU,1674875031
154,ilulissat,69.2167,-51.1,-8.989999999999952,53,20,1.03,GL,1674875031
155,nara,34.6851,135.8049,4.980000000000018,42,73,3.49,JP,1674875032
156,mar del plata,-38.0023,-57.5575,21.08000000000004,90,26,3.13,AR,1674875012
157,severomuysk,56.1481,113.4267,-18.609999999999985,94,100,1.91,RU,1674875033
158,spencer,43.1414,-95.1444,-10.25,80,0,2.06,US,1674875017
159,mayumba,-3.432,10.6554,23.25,91,100,3.71,GA,1674875034
160,zabkowice slaskie,50.5897,16.8124,-0.46999999999997044,99,100,2.34,PL,1674875034
161,port augusta,-32.5,137.7667,29.49000000000001,38,100,8.92,AU,1674875035
162,tricase,39.9304,18.3553,8.350000000000023,80,38,6.02,IT,1674875036
163,qaanaaq,77.484,-69.3632,-22.99999999999997,80,52,3.74,GL,1674875036
164,hole narsipur,12.7828,76.2431,18.689999999999998,59,2,2.12,IN,1674875037
165,saint-augustin,51.226,-58.6502,-14.739999999999952,78,77,5.52,CA,1674875037
166,sampit,-2.5333,112.95,30.610000000000014,62,61,1.7,ID,1674875038
167,usinsk,65.9939,57.5281,-8.70999999999998,93,100,6.62,RU,1674875038
168,iablanita,44.9503,22.3142,0.26000000000004775,98,100,1.61,RO,1674875039
169,alice springs,-23.7,133.8833,31.75,40,79,2.57,AU,1674875039
170,kruisfontein,-34.0033,24.7314,21.05000000000001,85,64,3.51,ZA,1674875040
171,shumskiy,54.8318,99.1328,-6.2999999999999545,76,95,4.04,RU,1674875040
172,marzuq,14.4,46.4667,15.890000000000043,78,88,2.95,YE,1674875041
173,manokwari,-0.8667,134.0833,27.05000000000001,80,100,0.47,ID,1674875041
174,lethem,3.3803,-59.7968,24.340000000000032,65,13,4.9,GY,1674875042
175,hobyo,5.3505,48.5268,23.840000000000032,78,24,6.62,SO,1674875043
176,saskylakh,71.9167,114.0833,-41.42999999999998,97,68,2.62,RU,1674875043
177,thompson,55.7435,-97.8558,-28.099999999999966,92,50,3.5,CA,1674874857
178,suntar,62.1444,117.6319,-31.799999999999983,97,93,1.71,RU,1674875044
179,robertsport,6.7533,-11.3686,25.920000000000016,90,70,1.86,LR,1674875045
180,kizner,56.2749,51.508,-6.529999999999973,96,99,2.52,RU,1674875046
181,basco,20.4487,121.9702,19.660000000000025,70,100,15.01,PH,1674875046
182,zapolyarnyy,69.4154,30.8136,-2.3999999999999773,92,100,6.36,RU,1674875047
183,hirara,24.8,125.2833,13.420000000000016,70,100,11.51,JP,1674875047
184,sorland,67.667,12.6934,2.920000000000016,62,100,14.68,NO,1674875048
185,camacha,33.0833,-16.3333,13.680000000000007,63,75,7.72,PT,1674875048
186,butaritari,3.0707,172.7902,27.52000000000004,80,6,9.0,KI,1674875048
187,sao paulo de olivenca,-3.3783,-68.8725,22.910000000000025,98,100,1.07,BR,1674875049
188,faanui,-16.4833,-151.75,27.25,73,3,5.58,PF,1674875049
189,katsina,12.9894,7.6006,22.910000000000025,14,82,2.5,NG,1674875050
190,warmbad,-28.45,18.7333,23.610000000000014,27,67,4.04,NA,1674875050
191,narsaq,60.9167,-46.05,0.12000000000000455,97,100,8.33,GL,1674875051
192,azovskaya,44.7908,38.6264,-1.919999999999959,57,99,1.69,RU,1674875051
193,yellowknife,62.456,-114.3525,-23.889999999999986,93,91,6.49,CA,1674874830
194,esperance,-33.8667,121.9,19.160000000000025,49,43,4.9,AU,1674875053
195,somerset,40.5668,-74.5496,2.840000000000032,74,32,0.45,US,1674875028
196,hannibal,39.7084,-91.3585,0.9500000000000455,86,0,0.0,US,1674875054
197,ponte nova,-20.4164,-42.9086,20.57000000000005,96,100,0.94,BR,1674875054
198,saint george,37.1041,-113.5841,7.189999999999998,52,0,0.45,US,1674875054
199,severo-yeniseyskiy,60.3725,93.0408,-12.739999999999952,91,100,5.09,RU,1674875055
200,hualmay,-11.0964,-77.6139,21.910000000000025,82,100,3.46,PE,1674875055
201,zhanaozen,43.3,52.8,-3.169999999999959,56,21,4.99,KZ,1674875056
202,tiksi,71.6872,128.8694,-37.039999999999964,100,99,0.68,RU,1674875056
203,palomares,17.15,-95.0667,17.689999999999998,93,100,4.51,MX,1674875057
204,husavik,66.0449,-17.3389,-2.7199999999999704,84,100,2.06,IS,1674875057
205,juneau,58.3019,-134.4197,3.4500000000000455,100,41,2.03,US,1674874845
206,kaeo,-35.1,173.7833,25.180000000000007,83,100,3.43,NZ,1674875058
207,mayo,38.8876,-76.5119,3.6100000000000136,66,0,2.06,US,1674875059
208,cherskiy,68.75,161.3,-30.22999999999999,85,15,1.09,RU,1674875059
209,bambous virieux,-20.3428,57.7575,25.680000000000007,86,100,2.32,MU,1674875060
210,umm lajj,25.0213,37.2685,22.75,41,3,3.83,SA,1674875060
211,puerto rondon,6.2805,-71.1,25.220000000000027,45,6,2.22,CO,1674875061
212,ahipara,-35.1667,173.1667,22.360000000000014,86,100,3.12,NZ,1674875061
213,acajutla,13.5928,-89.8275,26.439999999999998,58,37,3.41,SV,1674875062
214,udachnyy,66.4167,112.4,-34.74999999999997,97,100,2.21,RU,1674875062
215,yanam,16.7333,82.2167,23.430000000000007,64,94,1.63,IN,1674875063
216,katobu,-4.9408,122.5276,29.29000000000002,69,88,2.78,ID,1674875063
217,hofn,64.2539,-15.2082,1.400000000000034,58,100,3.68,IS,1674875064
218,lompoc,34.6391,-120.4579,11.960000000000036,84,100,9.39,US,1674875064
219,mehamn,71.0357,27.8492,2.9700000000000273,81,40,8.75,NO,1674874994
220,nome,64.5011,-165.4064,-4.909999999999968,93,100,6.69,US,1674875065
221,brae,60.3964,-1.353,6.600000000000023,67,92,10.58,GB,1674875066
222,ovalle,-30.5983,-71.2003,23.090000000000032,43,0,0.76,CL,1674874978
223,la macarena,2.1837,-73.7849,22.390000000000043,56,75,1.43,CO,1674875067
224,santa fe,-31.6333,-60.7,22.230000000000018,94,100,2.68,AR,1674874783
225,bengkulu,-3.8004,102.2655,28.07000000000005,69,90,5.44,ID,1674875068
226,macae,-22.3708,-41.7869,22.890000000000043,94,48,2.34,BR,1674874808
227,hurricane,37.1753,-113.2899,6.1200000000000045,60,77,2.48,US,1674875069
228,buka,40.8108,69.1986,-7.0499999999999545,83,34,0.88,UZ,1674875069
229,tibiao,11.2915,122.0354,25.82000000000005,86,100,5.63,PH,1674875070
230,vrangel,42.7297,133.0839,-14.189999999999998,52,68,5.72,RU,1674875070
231,gilgit,35.9221,74.3087,-1.2699999999999818,53,100,1.32,PK,1674875071
232,roald,62.5833,6.1333,7.090000000000032,75,75,8.75,NO,1674874888
233,uvira,-3.4067,29.1458,21.689999999999998,71,86,1.67,CD,1674875072
234,dunedin,-45.8742,170.5036,16.560000000000002,67,3,0.89,NZ,1674874838
235,aquiraz,-3.9014,-38.3911,27.32000000000005,85,33,4.32,BR,1674875073
236,atuona,-9.8,-139.0333,26.05000000000001,81,97,9.53,PF,1674875073
237,moate,53.55,-7.7167,3.7100000000000364,97,66,2.49,IE,1674875074
238,blagoyevo,63.3667,47.9167,-14.839999999999975,97,86,2.22,RU,1674875074
239,san andres,12.5847,-81.7006,27.010000000000048,69,20,7.72,CO,1674875075
240,ferme-neuve,46.7001,-75.4493,-4.729999999999961,89,100,5.15,CA,1674875075
241,wexford,52.3342,-6.4575,2.7200000000000273,91,13,2.24,IE,1674875076
242,iqaluit,63.7506,-68.5145,-40.23999999999998,88,9,4.06,CA,1674874889
243,bilibino,68.0546,166.4372,-28.48999999999998,96,19,1.87,RU,1674875077
244,dikson,73.5069,80.5464,-22.049999999999983,92,100,4.93,RU,1674875077
245,tezu,27.9167,96.1667,23.640000000000043,30,40,1.1,IN,1674875078
246,volga,57.9516,38.3879,-19.25999999999999,100,80,0.5,RU,1674875078
247,lebu,-37.6167,-73.65,13.850000000000023,77,0,8.34,CL,1674875000
248,kurilsk,45.2333,147.8833,-5.349999999999966,73,83,2.85,RU,1674875079
249,formosa do rio preto,-11.0483,-45.1931,23.110000000000014,69,100,0.89,BR,1674875080
250,kungurtug,50.5994,97.5228,-15.629999999999995,83,99,0.39,RU,1674875081
251,mukhen,48.1,136.1,-22.20999999999998,75,96,2.0,RU,1674875081
252,vila,42.0304,-8.1588,-0.7199999999999704,85,80,3.93,PT,1674875081
253,ngama,11.7833,17.1667,22.33000000000004,17,27,2.31,TD,1674875082
254,hovd,48.0056,91.6419,-16.879999999999995,76,1,0.3,MN,1674875083
255,shelburne,44.0787,-80.2041,-4.109999999999957,94,100,9.3,CA,1674875083
256,luganville,-15.5333,167.1667,30.27000000000004,68,20,3.72,VU,1674875084
257,vilcun,-38.65,-72.2333,10.410000000000025,86,0,0.82,CL,1674875084
258,les escoumins,48.1111,-69.0236,-20.049999999999983,96,63,2.96,CA,1674875085
259,raychikhinsk,49.7838,129.4121,-28.839999999999975,90,41,2.21,RU,1674875085
260,khatanga,71.9667,102.5,-24.049999999999983,81,99,6.53,RU,1674875086
261,abrau-dyurso,44.69,37.59,5.7000000000000455,43,100,2.84,RU,1674875086
262,linqiong,30.4159,103.4609,9.170000000000016,29,1,1.54,CN,1674875087
263,miquelon,47.0975,-56.3814,-1.0,60,100,12.37,PM,1674875087
264,walvis bay,-22.9575,14.5053,17.27000000000004,87,78,2.13,NA,1674875088
265,santa vitoria do palmar,-33.5189,-53.3681,22.390000000000043,95,74,2.35,BR,1674875089
266,salalah,17.0151,54.0924,22.05000000000001,68,20,6.69,OM,1674875089
267,caravelas,-17.7125,-39.2481,23.920000000000016,92,8,2.12,BR,1674875090
268,sioux lookout,50.1001,-91.917,-19.95999999999998,77,40,7.2,CA,1674874857
269,ambilobe,-13.2,49.05,23.29000000000002,95,77,0.41,MG,1674875090
270,hit,33.6416,42.8251,9.950000000000045,47,40,2.7,IQ,1674875091
271,pozo colorado,-23.4923,-58.7972,30.33000000000004,47,43,2.19,PY,1674875091
272,rumoi,43.9344,141.6428,-5.319999999999993,78,100,8.61,JP,1674875092
273,mabaruma,8.2,-59.7833,19.5,84,31,0.6,GY,1674875092
274,korla,41.7597,86.1469,-9.569999999999993,67,0,1.52,CN,1674875093
275,copiapo,-27.3667,-70.3333,14.830000000000041,66,8,1.03,CL,1674875093
276,cocorit,27.5833,-109.9667,15.760000000000048,33,100,1.98,MX,1674875094
277,komsomolskiy,40.4272,71.7189,-7.599999999999966,79,11,1.03,UZ,1674875095
278,great falls,47.5002,-111.3008,-2.339999999999975,92,100,7.2,US,1674874899
279,thrissur,10.5167,76.2167,23.99000000000001,61,7,2.56,IN,1674874977
280,arteaga,18.4667,-102.4167,15.850000000000023,44,36,1.32,MX,1674875096
281,asau,46.4333,26.4,-3.4899999999999523,96,100,3.19,RO,1674875097
282,yazykovo,55.2199,56.1353,-11.659999999999968,96,100,4.67,RU,1674875097
283,amapa,1.0,-52.0,21.30000000000001,98,100,1.13,BR,1674874854
284,emerald,-23.5333,148.1667,29.629999999999995,64,96,4.32,AU,1674874893
285,kawalu,-7.3817,108.2082,27.460000000000036,74,95,0.65,ID,1674875098
286,tessalit,20.1986,1.0114,10.629999999999995,17,87,3.85,ML,1674875099
287,bubaque,11.2833,-15.8333,24.710000000000036,72,69,2.14,GW,1674875099
288,inverell,-29.7833,151.1167,32.04000000000002,35,1,2.24,AU,1674875100
289,buzovna,40.5179,50.1139,5.050000000000011,87,75,3.09,AZ,1674875101
290,atar,20.5169,-13.0499,14.310000000000002,21,100,4.73,MR,1674874948
291,uglovskoye,51.3557,80.1942,-14.519999999999982,81,23,5.95,RU,1674875102
292,kholbon,51.8833,116.25,-17.109999999999957,95,100,0.14,RU,1674875102
293,solnechnyy,50.7214,136.6319,-24.029999999999973,91,99,1.15,RU,1674875103
294,dubbo,-32.25,148.6167,35.07000000000005,28,0,6.17,AU,1674875104
295,kjollefjord,70.9457,27.3465,4.03000000000003,81,40,8.75,NO,1674875104
296,chokurdakh,70.6333,147.9167,-28.409999999999968,97,100,4.29,RU,1674875105
297,bozova,37.3625,38.5267,5.510000000000048,65,100,4.58,TR,1674875105
298,white settlement,32.7596,-97.4584,10.03000000000003,56,20,7.2,US,1674874993
299,kaoma,-14.7833,24.8,18.230000000000018,98,100,1.98,ZM,1674875106
300,kasongo-lunda,-6.4667,16.8167,19.710000000000036,99,100,0.61,CD,1674875107
301,acapulco,16.8634,-99.8901,24.900000000000034,69,0,2.57,MX,1674874966
302,toyooka,35.5333,134.8333,1.07000000000005,95,100,2.55,JP,1674875108
303,porterville,36.0652,-119.0168,10.970000000000027,87,0,0.0,US,1674875108
304,tukrah,32.5341,20.5791,14.5,59,86,5.71,LY,1674875109
305,agua branca,-5.8922,-42.6361,22.180000000000007,79,79,0.49,BR,1674875109
306,poya,-21.35,165.15,25.939999999999998,83,99,3.78,NC,1674875110
307,vardo,70.3705,31.1107,1.580000000000041,84,100,10.21,NO,1674875110
308,serebryansk,49.6925,83.2892,-19.769999999999982,94,36,2.77,KZ,1674875111
309,arlit,18.7369,7.3853,18.230000000000018,15,100,3.22,NE,1674875111
310,san policarpo,12.1791,125.5072,26.620000000000005,85,100,3.89,PH,1674875112
311,saint anthony,45.0205,-93.218,-10.21999999999997,73,0,6.17,US,1674875113
312,vanino,49.0869,140.2543,-17.93999999999997,64,100,2.64,RU,1674875113
313,laguna,38.421,-121.4238,12.400000000000034,77,0,0.0,US,1674875114
314,menongue,-14.6585,17.691,16.860000000000014,96,100,1.77,AO,1674875114
315,imeni stepana razina,54.8932,44.2963,-11.379999999999995,97,99,1.96,RU,1674875115
316,sistranda,63.7256,8.834,4.980000000000018,71,100,14.97,NO,1674875092
317,sembakung,3.8167,117.25,24.180000000000007,95,98,1.08,ID,1674875116
318,najran,17.4924,44.1277,13.220000000000027,83,93,3.36,SA,1674874988
319,trincomalee,8.5711,81.2335,25.980000000000018,63,24,5.6,LK,1674875117
320,bowen,-20.0167,148.2333,28.52000000000004,74,70,5.24,AU,1674875117
321,karatuzskoye,53.6072,92.8667,-4.7099999999999795,80,100,6.02,RU,1674875118
322,bonthe,7.5264,-12.505,24.980000000000018,94,96,1.29,SL,1674875118
323,kajaani,64.2273,27.7285,-2.9699999999999704,86,100,5.66,FI,1674875119
324,cabo san lucas,22.8909,-109.9124,20.28000000000003,66,20,3.6,MX,1674875119
325,orotukan,62.2667,151.7,-32.43999999999997,100,95,0.54,RU,1674875120
326,oranjemund,-28.55,16.4333,17.460000000000036,91,93,4.81,NA,1674875120
327,shangqiu,34.45,115.65,3.0300000000000296,17,0,2.55,CN,1674875108
328,sao joao da barra,-21.6403,-41.0511,24.379999999999995,91,9,3.81,BR,1674875121
329,burlatskoye,45.0564,43.635,-0.15999999999996817,87,71,5.05,RU,1674875122
330,puri,19.8,85.85,23.82000000000005,57,68,3.98,IN,1674875122
331,biltine,14.5333,20.9167,22.610000000000014,13,6,3.32,TD,1674875123
332,nortelandia,-14.4547,-56.8028,21.410000000000025,98,100,1.92,BR,1674875123
333,buala,-8.145,159.5921,29.510000000000048,68,98,2.2,SB,1674875124
334,lorengau,-2.0226,147.2712,29.360000000000014,70,100,4.32,PG,1674875125
335,krasnoselkup,65.7,82.4667,-17.049999999999955,99,93,4.59,RU,1674875125
336,loandjili,-4.7561,11.8578,22.99000000000001,93,100,4.72,CG,1674875126
337,shaoyang,27.2315,111.4525,7.3799999999999955,18,1,1.49,CN,1674875126
338,gympie,-26.1898,152.665,35.26000000000005,33,15,2.66,AU,1674875127
339,lampazos de naranjo,27.0167,-100.5167,10.379999999999995,83,98,3.65,MX,1674875127
340,kibala,9.1104,18.3463,25.400000000000034,18,63,1.43,TD,1674875128
341,vung tau,10.346,107.0843,25.53000000000003,72,100,3.34,VN,1674875129
342,santa isabel,-23.3156,-46.2214,20.610000000000014,98,42,0.96,BR,1674875130
343,lusambo,-4.9667,23.45,19.890000000000043,99,100,0.85,CD,1674875130
344,coihaique,-45.5752,-72.0662,13.970000000000027,58,75,4.12,CL,1674875131
345,abha,18.2164,42.5053,6.140000000000043,87,40,0.0,SA,1674875131
346,new norfolk,-42.7826,147.0587,28.730000000000018,37,100,1.79,AU,1674875132
347,acari,-15.4311,-74.6158,24.140000000000043,77,27,0.8,PE,1674875132
348,comodoro rivadavia,-45.8667,-67.5,19.700000000000045,42,91,8.83,AR,1674875133
349,fare,-16.7,-151.0167,27.25,72,2,5.84,PF,1674875134
350,pangnirtung,66.1451,-65.7125,-35.44999999999999,96,84,1.13,CA,1674875134
351,harper,4.375,-7.7169,25.80000000000001,87,37,2.43,LR,1674875135
352,pangkalanbuun,-2.6833,111.6167,29.680000000000007,67,71,1.77,ID,1674875135
353,namanyere,-7.5167,31.05,15.900000000000034,91,100,1.23,TZ,1674875136
354,choma,-16.8065,26.9531,17.210000000000036,98,100,1.68,ZM,1674875136
355,buraydah,26.326,43.975,9.920000000000016,61,0,3.47,SA,1674875137
356,isangel,-19.55,169.2667,31.060000000000002,74,75,2.06,VU,1674875137
357,novoagansk,61.9449,76.6625,-15.25,100,100,2.92,RU,1674875138
358,sandy bay,-42.913,147.3532,28.939999999999998,37,0,5.66,AU,1674875138
359,biak,-0.9131,122.8766,27.82000000000005,74,100,3.1,ID,1674875139
360,naze,28.3667,129.4833,10.450000000000045,60,98,8.1,JP,1674875139
361,oliver,49.1831,-119.5524,1.900000000000034,77,4,3.65,CA,1674875007
362,osmena,10.5208,119.9258,26.390000000000043,83,100,11.9,PH,1674875140
363,alcantara,-2.4089,-44.4147,27.110000000000014,88,95,2.86,BR,1674875141
364,namibe,-15.1961,12.1522,23.33000000000004,81,100,1.16,AO,1674875142
365,bundaberg,-24.85,152.35,32.34000000000003,52,5,1.34,AU,1674875142
366,long beach,33.767,-118.1892,15.25,70,0,2.24,US,1674874845
367,maceio,-9.6658,-35.7353,24.689999999999998,94,0,1.54,BR,1674875112
368,shingu,33.7333,135.9833,6.400000000000034,47,36,3.87,JP,1674875020
369,shouguang,36.88,118.7375,0.5200000000000387,18,0,5.45,CN,1674875144
370,kununurra,-15.7667,128.7333,31.99000000000001,62,86,1.03,AU,1674875144
371,kropotkin,45.4375,40.5756,-1.169999999999959,81,48,4.67,RU,1674875145
372,catia la mar,10.6038,-67.0303,25.110000000000014,88,0,0.0,VE,1674875145
373,labuhan,-6.8844,112.2051,27.610000000000014,79,100,4.0,ID,1674875146
374,kuopio,62.8924,27.677,-4.029999999999973,86,0,4.63,FI,1674875146
375,isiro,2.7739,27.616,18.220000000000027,60,7,1.02,CD,1674875146
376,hithadhoo,-0.6,73.0833,27.25,76,99,3.13,MV,1674875147
377,karratha,-20.7377,116.8463,32.950000000000045,49,44,4.16,AU,1674875148
378,san juan,-31.5375,-68.5364,25.610000000000014,44,2,3.67,AR,1674875100
379,grindavik,63.8424,-22.4338,2.2600000000000477,93,100,7.2,IS,1674875149
380,ostrovnoy,68.0531,39.5131,-3.6200000000000045,89,100,10.09,RU,1674875149
381,tekeli,44.83,78.8239,-7.419999999999959,56,0,4.43,KZ,1674875150
382,port hedland,-20.3167,118.5667,33.03000000000003,62,30,4.63,AU,1674874971
383,touros,-5.1989,-35.4608,26.53000000000003,75,0,5.74,BR,1674875016
384,querecotillo,-4.8378,-80.6456,24.670000000000016,65,83,4.02,PE,1674875151
385,dingle,10.9995,122.6711,26.430000000000007,86,82,5.88,PH,1674875151
386,haines junction,60.7522,-137.5108,-14.339999999999975,96,13,1.42,CA,1674875152
387,pakxan,18.3778,103.6601,19.49000000000001,37,5,3.23,LA,1674875152
388,hukuntsi,-24.0,21.75,23.900000000000034,37,10,3.61,BW,1674875153
389,kingaroy,-26.5333,151.8333,35.14000000000004,26,5,0.51,AU,1674875153
390,pontes e lacerda,-15.2261,-59.3353,22.470000000000027,97,100,1.4,BR,1674875154
391,tura,25.5198,90.2201,22.460000000000036,48,0,0.35,IN,1674875154
392,lata,40.1629,-8.3327,1.7100000000000364,85,0,1.93,PT,1674875155
393,carmo do paranaiba,-19.0008,-46.3161,17.450000000000045,95,12,1.25,BR,1674875155
394,northam,51.0333,-4.2167,4.230000000000018,80,79,1.44,GB,1674875156
395,sola,-13.8833,167.55,28.170000000000016,74,54,5.13,VU,1674875156
396,betong,5.7743,101.0723,21.99000000000001,96,100,0.83,TH,1674875157
397,shalya,57.2471,58.7298,-8.95999999999998,94,100,4.4,RU,1674875157
398,virginia beach,36.8529,-75.978,3.900000000000034,63,5,2.47,US,1674874681
399,salinopolis,-0.6136,-47.3561,24.5,87,100,2.9,BR,1674875158
400,pevek,69.7008,170.3133,-26.839999999999975,92,16,1.98,RU,1674875158
401,shahr-e babak,30.1165,55.1186,-0.48999999999995225,88,81,2.85,IR,1674875159
402,palmer,42.1584,-72.3287,1.4600000000000364,79,91,2.62,US,1674875159
403,altay,47.8667,88.1167,-15.269999999999982,68,0,2.06,CN,1674875160
404,torbay,47.6666,-52.7314,-0.339999999999975,79,31,4.47,CA,1674875161
405,shenkursk,62.1091,42.896,-12.269999999999982,92,37,3.0,RU,1674875161
406,saint-leu,-21.15,55.2833,25.480000000000018,81,35,0.46,RE,1674875162
407,peniche,39.3558,-9.3811,6.730000000000018,76,3,6.54,PT,1674875162
408,gushikawa,26.3544,127.8686,13.57000000000005,67,100,3.6,JP,1674875163
409,ureki,41.9956,41.7786,11.980000000000018,49,98,4.9,GE,1674875163
410,nacala,-14.5428,40.6728,23.650000000000034,95,76,2.7,MZ,1674875164
411,mortka,59.3322,66.0214,-5.649999999999977,97,100,2.27,RU,1674875165
412,kalispell,48.1958,-114.3129,0.37000000000000455,93,100,6.17,US,1674875079
413,heihe,50.2441,127.4902,-28.67999999999998,90,12,1.4,CN,1674875166
414,vanimo,-2.6741,141.3028,29.879999999999995,65,75,2.81,PG,1674875167
415,jaunpur,25.7333,82.6833,12.590000000000032,46,0,4.13,IN,1674874942
416,berlevag,70.8578,29.0864,3.0,75,40,8.75,NO,1674875168
417,sao filipe,14.8961,-24.4956,23.52000000000004,77,18,3.36,CV,1674875168
418,hasaki,35.7333,140.8333,7.3799999999999955,38,78,4.34,JP,1674875169
419,denpasar,-8.65,115.2167,24.840000000000032,100,75,2.06,ID,1674875170
420,mankato,44.1636,-93.9994,-11.139999999999986,72,0,6.69,US,1674875170
421,arys,42.4252,68.795,-9.46999999999997,91,95,1.22,KZ,1674875171
422,hermitage,41.2334,-80.4487,1.6800000000000068,66,100,6.17,US,1674875171
423,kaitangata,-46.2817,169.8464,16.140000000000043,59,0,5.79,NZ,1674875172
424,llanes,43.4198,-4.7549,9.939999999999998,77,100,4.04,ES,1674875172
425,kawambwa,-9.7915,29.0791,17.02000000000004,94,100,1.1,ZM,1674875173
426,port macquarie,-31.4333,152.9167,28.83000000000004,64,2,5.3,AU,1674875174
427,champerico,14.3,-91.9167,26.510000000000048,74,6,2.12,GT,1674875174
428,elizabeth city,36.2946,-76.2511,5.010000000000048,78,0,3.09,US,1674875175
429,caluquembe,-13.7833,14.6833,14.910000000000025,94,100,1.32,AO,1674875062
430,maryborough,-25.5333,152.7,33.99000000000001,38,15,3.93,AU,1674875175
431,mirnyy,62.5353,113.9611,-32.289999999999964,97,100,3.61,RU,1674875176
432,weligama,5.9667,80.4167,25.840000000000032,74,50,1.49,LK,1674875176
433,poputnaya,44.5125,41.4392,-1.0299999999999727,66,41,3.33,RU,1674875177
434,tsiroanomandidy,-18.7667,46.0333,19.590000000000032,94,100,3.04,MG,1674875177
435,mandalgovi,45.7625,106.2708,-10.359999999999957,50,2,6.84,MN,1674875178
436,mata,40.683,-7.4592,-0.03999999999996362,93,7,1.75,PT,1674875179
437,port blair,11.6667,92.75,28.02000000000004,74,40,3.6,IN,1674875043
438,chumikan,54.7183,135.315,-26.879999999999967,83,59,7.87,RU,1674875179
439,san ignacio,17.1561,-89.0714,21.08000000000004,94,0,0.0,BZ,1674875180
440,simao,22.7886,100.9748,15.07000000000005,62,50,1.56,CN,1674875180
441,carballo,43.213,-8.691,7.150000000000034,85,97,3.05,ES,1674875181
442,keningau,5.3378,116.1602,29.730000000000018,65,74,0.65,MY,1674875181
443,upington,-28.4478,21.2561,26.33000000000004,22,82,7.79,ZA,1674875182
444,nishihara,26.1842,127.7558,13.600000000000023,58,75,9.26,JP,1674875182
445,bongandanga,1.5,21.05,20.150000000000034,91,100,1.53,CD,1674875183
446,samdari,25.8167,72.5833,10.910000000000025,25,0,3.39,IN,1674875183
447,sakaiminato,35.55,133.2333,0.9600000000000364,89,100,8.43,JP,1674875184
448,ust-kuyga,70.0167,135.6,-44.109999999999985,100,69,1.05,RU,1674875184
449,krasnoarmeysk,51.0239,45.6969,-13.649999999999977,87,5,1.44,RU,1674875185
450,toora-khem,52.4675,96.11,-15.21999999999997,93,99,1.27,RU,1674875185
451,kansanshi,-12.0951,26.4273,15.939999999999998,98,99,1.74,ZM,1674875186
452,gerash,27.6652,54.1371,7.6200000000000045,84,2,2.11,IR,1674875186
453,andenes,69.3143,16.1194,1.990000000000009,80,75,10.8,NO,1674875187
454,tabou,4.423,-7.3528,25.52000000000004,89,16,2.37,CI,1674875188
455,puerto escondido,15.85,-97.0667,24.560000000000002,63,84,2.12,MX,1674874926
456,tucuman,-26.8241,-65.2226,22.53000000000003,99,100,1.4,AR,1674875188
457,opelika,32.6454,-85.3783,4.930000000000007,69,0,1.54,US,1674875189
458,rudbar,30.15,62.6,7.3700000000000045,43,100,1.51,AF,1674875189
459,honiara,-9.4333,159.95,28.930000000000007,78,36,2.53,SB,1674875190
460,zhigansk,66.7697,123.3711,-42.859999999999985,96,92,3.25,RU,1674875190
461,katsuura,35.1333,140.3,7.010000000000048,36,89,4.17,JP,1674875191
462,richards bay,-28.783,32.0377,20.860000000000014,90,1,2.08,ZA,1674875191
463,lakes entrance,-37.8811,147.981,28.78000000000003,43,51,4.34,AU,1674875192
464,nkowakowa,-23.8878,30.2871,18.620000000000005,91,19,0.87,ZA,1674875192
465,yulara,-25.2406,130.9889,29.910000000000025,47,99,6.83,AU,1674875193
466,camacari,-12.6975,-38.3242,27.870000000000005,90,24,2.48,BR,1674875194
467,ibaiti,-23.8486,-50.1878,19.58000000000004,76,39,1.9,BR,1674875043
468,kalangala,-0.3089,32.225,22.170000000000016,62,50,1.73,UG,1674875194
469,henties bay,-22.116,14.2845,18.260000000000048,86,82,1.72,NA,1674875195
470,tonekabon,36.8163,50.8738,8.04000000000002,55,0,2.89,IR,1674875195
471,severodvinsk,64.5635,39.8302,-7.939999999999998,78,100,6.39,RU,1674875196
472,taoudenni,22.6783,-3.9836,11.82000000000005,19,100,1.9,ML,1674875197
473,somerset west,-34.084,18.8211,20.470000000000027,90,10,2.68,ZA,1674875062
474,kalmunai,7.4167,81.8167,25.310000000000002,77,98,3.47,LK,1674875198
475,demba,-5.51,22.2667,19.129999999999995,99,100,0.56,CD,1674875198
476,ormara,25.2088,64.6357,18.25,40,58,1.79,PK,1674874935
477,dicabisagan,17.0818,122.4157,21.400000000000034,86,100,7.12,PH,1674875199
478,road town,18.4167,-64.6167,24.05000000000001,62,27,8.54,VG,1674875199
479,puerto ayacucho,5.6639,-67.6236,24.52000000000004,56,65,3.9,VE,1674875200
480,hami,42.8,93.45,-7.649999999999977,35,0,2.4,CN,1674875200
481,faya,18.3851,42.4509,6.2900000000000205,78,0,1.15,SA,1674875201
482,nouadhibou,20.931,-17.0347,17.230000000000018,45,95,8.53,MR,1674875201
483,muros,42.7762,-9.0603,3.160000000000025,73,45,4.49,ES,1674875202
484,nelson bay,-32.7167,152.15,31.03000000000003,79,0,8.05,AU,1674875202
485,lincoln,40.8,-96.667,0.7200000000000273,78,100,1.34,US,1674874883
486,ningbo,29.8782,121.5495,4.640000000000043,31,0,5.83,CN,1674875007
487,mindelo,16.8901,-24.9804,21.75,78,40,8.75,CV,1674875204
488,buchanan,5.8808,-10.0467,24.0,89,99,1.52,LR,1674875204
489,sao mateus,-18.7161,-39.8589,23.04000000000002,96,4,1.61,BR,1674875205
490,petropavlovsk-kamchatskiy,53.0452,158.6483,-2.669999999999959,54,75,2.0,RU,1674875205
491,le moule,16.3332,-61.3473,22.879999999999995,100,2,5.73,GP,1674875206
492,kandrian,-6.2167,149.55,29.900000000000034,69,97,3.43,PG,1674875206
493,luba,3.4568,8.5547,26.400000000000034,84,100,4.56,GQ,1674875207
494,carutapera,-1.195,-46.02,23.710000000000036,93,82,1.7,BR,1674875207
495,tautira,-17.7333,-149.15,27.08000000000004,76,11,6.0,PF,1674875208
496,volkhovskiy,58.58,31.3164,-10.949999999999989,100,97,1.8,RU,1674875208
497,grootfontein,-19.5667,18.1167,21.170000000000016,54,79,2.74,NA,1674875209
498,kendari,-3.945,122.4989,25.920000000000016,90,100,1.61,ID,1674875209
499,cartagena del chaira,1.3349,-74.8429,22.80000000000001,56,24,1.32,CO,1674875210
500,banda aceh,5.5577,95.3222,26.350000000000023,77,98,3.42,ID,1674875210
501,suwannaphum,15.6035,103.8021,19.379999999999995,52,100,9.06,TH,1674875211
502,canyon,34.9803,-101.9188,5.2900000000000205,50,0,9.47,US,1674875211
503,mount isa,-20.7333,139.5,34.870000000000005,38,75,5.66,AU,1674875134
504,anju,39.6178,125.6647,-10.349999999999966,65,4,0.32,KP,1674875212
505,teahupoo,-17.8333,-149.2667,25.980000000000018,76,11,6.33,PF,1674875212
506,miraflores,19.2167,-98.8083,16.360000000000014,46,0,2.02,MX,1674875213
507,robertson,36.5167,-86.8667,8.25,44,20,4.63,US,1674875214
508,weiz,47.2167,15.6167,-2.7899999999999636,99,99,1.92,AT,1674875214
509,buriti,-22.9302,-45.3881,19.30000000000001,98,16,1.22,BR,1674875215
510,maracaibo,10.6317,-71.6406,25.439999999999998,68,50,5.9,VE,1674875204
511,nevel,56.0209,29.9284,-8.67999999999995,99,80,1.39,RU,1674875216
512,jinchang,38.4953,102.1739,-5.609999999999957,22,18,0.16,CN,1674875216
513,port lincoln,-34.7333,135.8667,20.460000000000036,75,100,3.32,AU,1674875217
514,kahului,20.8947,-156.47,21.58000000000004,95,100,4.12,US,1674875217
515,sept-iles,50.2001,-66.3821,-19.68999999999997,89,10,2.56,CA,1674875218
516,udomlya,57.8794,34.9925,-16.42999999999995,99,66,0.75,RU,1674875218
517,santa marta,11.2408,-74.199,27.03000000000003,57,80,6.17,CO,1674875219
518,la ronge,55.1001,-105.2842,-21.919999999999987,92,98,4.31,CA,1674875220
519,kloulklubed,7.0419,134.2556,27.28000000000003,80,94,4.71,PW,1674875220
520,irbil,36.1926,44.0106,2.900000000000034,60,55,0.51,IQ,1674875221
521,ahuimanu,21.4447,-157.8378,25.840000000000032,68,75,8.23,US,1674875221
522,tarko-sale,64.9225,77.785,-16.389999999999986,96,71,5.01,RU,1674875221
523,bolshaya martynovka,47.271,41.6679,-3.4699999999999704,86,6,5.29,RU,1674875223
524,rio gallegos,-51.6226,-69.2181,16.340000000000032,45,100,8.95,AR,1674875223
525,mana,5.6592,-53.7767,23.78000000000003,78,100,2.44,GF,1674875224
526,providencia,28.7167,-111.5833,13.460000000000036,42,100,4.74,MX,1674875224
527,daru,-9.0763,143.2092,29.390000000000043,70,100,0.61,PG,1674875225
528,kinkala,-4.3614,14.7644,19.700000000000045,98,98,1.34,CG,1674875225
529,takoradi,4.8845,-1.7554,25.970000000000027,88,97,2.92,GH,1674875226
530,meulaboh,4.1363,96.1285,25.33000000000004,83,100,2.7,ID,1674875226
531,amga,60.8953,131.9608,-33.109999999999985,93,100,0.63,RU,1674875227
532,sumbe,-11.2061,13.8437,25.27000000000004,82,100,1.65,AO,1674875227
533,denia,38.8408,0.1057,8.590000000000032,65,97,3.13,ES,1674875228
534,zastron,-30.3023,27.084,17.710000000000036,41,2,1.48,ZA,1674875229
535,adrar,20.5022,-10.0711,12.140000000000043,21,100,4.61,MR,1674874948
536,palimbang,6.2106,124.1894,29.54000000000002,70,99,2.57,PH,1674875230
537,seoul,37.5683,126.9778,-4.310000000000002,44,89,1.91,KR,1674874992
538,goderich,43.7501,-81.7165,0.5100000000000477,92,100,13.62,CA,1674875230
539,novikovo,51.1537,37.8879,-5.769999999999982,84,100,3.05,RU,1674875231
540,san luis,-33.295,-66.3356,20.77000000000004,79,6,5.47,AR,1674874755
541,ramsgate,51.3358,1.4155,4.810000000000002,64,33,2.24,GB,1674875060
542,khanpur,28.6453,70.6567,12.240000000000009,22,48,2.77,PK,1674875232
543,aberdeen,57.1437,-2.0981,5.360000000000014,87,75,3.09,GB,1674875163
544,sabha,27.0377,14.4283,6.7900000000000205,29,0,2.71,LY,1674875137
545,paredon,16.0333,-93.8667,24.710000000000036,67,6,7.72,MX,1674875233
546,coahuayana,18.7333,-103.6833,20.760000000000048,71,23,1.32,MX,1674875234
547,varhaug,58.6147,5.6457,6.050000000000011,95,99,7.17,NO,1674875234
548,uvat,59.1433,68.8953,-5.229999999999961,97,100,2.53,RU,1674875235
549,okato,-39.2,173.8833,17.05000000000001,88,100,7.46,NZ,1674875236
550,tepic,21.5,-104.9,14.629999999999995,79,95,0.78,MX,1674875236
551,iglesias,39.3114,8.535,5.439999999999998,79,96,1.61,IT,1674875237
552,tecoanapa,16.5167,-98.75,24.52000000000004,73,12,1.64,MX,1674875237
553,zyryanka,65.75,150.85,-29.529999999999973,94,100,2.5,RU,1674875238
554,nipawin,53.3668,-104.0009,-28.829999999999984,96,28,2.61,CA,1674875238
555,labelle,26.7617,-81.4384,16.100000000000023,55,100,4.7,US,1674875232
556,pinheiro machado,-31.5783,-53.3811,23.360000000000014,91,16,2.26,BR,1674875240
557,key largo,25.0865,-80.4473,22.78000000000003,81,100,8.76,US,1674875111
558,honningsvag,70.9821,25.9704,3.8600000000000136,70,100,9.77,NO,1674875241
559,port charlotte,26.9762,-82.0906,16.680000000000007,65,100,4.63,US,1674875070
560,marsh harbour,26.5412,-77.0636,21.99000000000001,73,100,7.32,BS,1674875173
561,shostka,51.863,33.4698,-3.819999999999993,86,37,2.72,UA,1674875242
562,stranda,62.3096,6.9358,6.300000000000011,93,100,3.38,NO,1674875242
563,jalu,29.0331,21.5482,10.910000000000025,63,0,3.78,LY,1674875243
564,ilebo,-4.3167,20.5833,20.80000000000001,99,100,0.81,CD,1674875243
565,turayf,31.6725,38.6637,8.04000000000002,61,68,6.05,SA,1674875244
566,molodizhne,48.1773,32.6601,-2.609999999999957,65,66,5.73,UA,1674875245
567,bichura,50.5881,107.6022,-12.579999999999984,77,100,1.79,RU,1674875245
568,rognan,67.0953,15.3878,2.7100000000000364,97,100,6.85,NO,1674875246
569,atambua,-9.1061,124.8925,28.730000000000018,66,93,2.29,ID,1674875247
570,viedma,-40.8135,-62.9967,17.07000000000005,49,0,3.75,AR,1674875082
571,muroto,33.2833,134.15,6.2000000000000455,55,47,6.6,JP,1674875247
572,smoky lake,54.1169,-112.4686,-14.699999999999989,91,100,3.41,CA,1674875248
573,simbahan,6.3032,120.5836,26.900000000000034,79,99,3.61,PH,1674875248
